{"type":"FeatureCollection","features":[{"type": "Feature", "geometry": {"type": "Point", "coordinates": [2.36849894068114, 48.859626803948466]}, "properties": {"immeuble": "70", "designation": "Rue", "objectid": 14335, "complement": "#", "geo_point_2d": [48.8596268039, 2.36849894068], "numero": "rn42013", "denomination": "SAINT-SABIN", "y": 128797.058, "x": 602346.084, "annee": "1985", "typ": "ENSERVICE", "altitude": 34.135}},{"type": "Feature", "geometry": {"type": "Point", "coordinates": [2.382724002180594, 48.861554989702825]}, "properties": {"immeuble": "#", "designation": "Rue du", "objectid": 14373, "complement": "A l'angle de la rue Servan_ Sur le pan coup\u00e9", "geo_point_2d": [48.8615549897, 2.38272400218], "numero": "rn43173", "denomination": "CHEMIN VERT", "y": 129012.016, "x": 603389.685, "annee": "1985", "typ": "ENSERVICE", "altitude": 47.761}},{"type": "Feature", "geometry": {"type": "Point", "coordinates": [2.330289945410934, 48.870842833910736]}, "properties": {"immeuble": "2", "designation": "Rue", "objectid": 14376, "complement": "#", "geo_point_2d": [48.8708428339, 2.33028994541], "numero": "rn34039", "denomination": "SCRIBE", "y": 130043.807, "x": 599542.698, "annee": "1985", "typ": "ENSERVICE", "altitude": 35.8}},{"type": "Feature", "geometry": {"type": "Point", "coordinates": [2.399534310783685, 48.888164004799954]}, "properties": {"immeuble": "7", "designation": "Rue", "objectid": 14380, "complement": "93-LE PRE SAINT-GERVAIS", "geo_point_2d": [48.8881640048, 2.39953431078], "numero": "rn93387", "denomination": "MARCCEAU", "y": 131971.851, "x": 604620.601, "annee": "1992", "typ": "ENSERVICE", "altitude": 57.871}},{"type": "Feature", "geometry": {"type": "Point", "coordinates": [2.394771236656589, 48.85949705007313]}, "properties": {"immeuble": "#", "designation": "#", "objectid": 14391, "complement": "Avenue des Acacias sur l'escalier menant au chemin Dragon", "geo_point_2d": [48.8594970501, 2.39477123666], "numero": "rn79218", "denomination": "CIMETIERE DU PERE LACHAISE", "y": 128783.785, "x": 604273.764, "annee": "1988", "typ": "ENSERVICE", "altitude": 75.374}},{"type": "Feature", "geometry": {"type": "Point", "coordinates": [2.351459175343738, 48.8437512371824]}, "properties": {"immeuble": "39", "designation": "Rue", "objectid": 14401, "complement": "#", "geo_point_2d": [48.8437512372, 2.35145917534], "numero": "rn18052", "denomination": "GRACIEUSE", "y": 127031.293, "x": 601096.169, "annee": "1981", "typ": "ENSERVICE", "altitude": 51.235}},{"type": "Feature", "geometry": {"type": "Point", "coordinates": [2.305639497490244, 48.88442361014368]}, "properties": {"immeuble": "68", "designation": "Rue", "objectid": 14415, "complement": "#", "geo_point_2d": [48.8844236101, 2.30563949749], "numero": "rn66234", "denomination": "JOUFFROY D'ABBANS", "y": 131554.442, "x": 597735.064, "annee": "1993", "typ": "ENSERVICE", "altitude": 41.385}},{"type": "Feature", "geometry": {"type": "Point", "coordinates": [2.342353009530615, 48.892401241322546]}, "properties": {"immeuble": "15", "designation": "Rue de", "objectid": 14468, "complement": "Pr\u00e8s de la rue Duc", "geo_point_2d": [48.8924012413, 2.34235300953], "numero": "rn70279", "denomination": "TRETAIGNE", "y": 132441.115, "x": 600427.428, "annee": "1988", "typ": "ENSERVICE", "altitude": 60.809}},{"type": "Feature", "geometry": {"type": "Point", "coordinates": [2.317093422556495, 48.8356288268035]}, "properties": {"immeuble": "42", "designation": "Rue", "objectid": 14481, "complement": "#", "geo_point_2d": [48.8356288268, 2.31709342256], "numero": "rn56135", "denomination": "GUILLEMINOT", "y": 126128.148, "x": 598573.618, "annee": "1995", "typ": "ENSERVICE", "altitude": 64.019}},{"type": "Feature", "geometry": {"type": "Point", "coordinates": [2.313889495294664, 48.87348211298323]}, "properties": {"immeuble": "47", "designation": "Rue", "objectid": 14503, "complement": "#", "geo_point_2d": [48.873482113, 2.31388949529], "numero": "rn31003", "denomination": "LA BOETIE", "y": 130337.526, "x": 598339.714, "annee": "1983", "typ": "ENSERVICE", "altitude": 32.827}},{"type": "Feature", "geometry": {"type": "Point", "coordinates": [2.312118438626252, 48.873157273430635]}, "properties": {"immeuble": "61", "designation": "Rue", "objectid": 14507, "complement": "#", "geo_point_2d": [48.8731572734, 2.31211843863], "numero": "rn31004", "denomination": "LA BOETIE", "y": 130301.444, "x": 598209.791, "annee": "1983", "typ": "ENSERVICE", "altitude": 31.685}},{"type": "Feature", "geometry": {"type": "Point", "coordinates": [2.323983281436027, 48.85639377715762]}, "properties": {"immeuble": "#", "designation": "Rue de", "objectid": 14513, "complement": "A l'angle du passage de la Visitation", "geo_point_2d": [48.8563937772, 2.32398328144], "numero": "rn25048", "denomination": "SAINT-SIMON", "y": 128437.119, "x": 599079.788, "annee": "1982", "typ": "ENSERVICE", "altitude": 33.152}},{"type": "Feature", "geometry": {"type": "Point", "coordinates": [2.428106470001607, 48.841599560352044]}, "properties": {"immeuble": "58", "designation": "Avenue des", "objectid": 14536, "complement": "94-VINCENNES_ A l'angle de l'avenue du Petit Parc_", "geo_point_2d": [48.8415995604, 2.42810647], "numero": "rn94187", "denomination": "MINIMES", "y": 126796.0, "x": 606722.074, "annee": "1996", "typ": "ENSERVICE", "altitude": 45.14}},{"type": "Feature", "geometry": {"type": "Point", "coordinates": [2.345577985567073, 48.84909124716782]}, "properties": {"immeuble": "#", "designation": "Place", "objectid": 14538, "complement": "Face \u00e0 la rue Th\u00e9nard_ Sur le coll\u00e8ge de France", "geo_point_2d": [48.8490912472, 2.34557798557], "numero": "rn20036", "denomination": "MARCELIN BERTHELOT", "y": 127625.037, "x": 600664.445, "annee": "1981", "typ": "ENSERVICE", "altitude": 44.602}},{"type": "Feature", "geometry": {"type": "Point", "coordinates": [2.367631569879702, 48.861789989353234]}, "properties": {"immeuble": "96", "designation": "Rue", "objectid": 14571, "complement": "#", "geo_point_2d": [48.8617899894, 2.36763156988], "numero": "rn42007", "denomination": "AMELOT", "y": 129037.579, "x": 602282.345, "annee": "1985", "typ": "ENSERVICE", "altitude": 35.45}},{"type": "Feature", "geometry": {"type": "Point", "coordinates": [2.3320757313516562, 48.88772308331184]}, "properties": {"immeuble": "#", "designation": "Rue", "objectid": 14582, "complement": "Face au n\u00b028_sur le cimeti\u00e8re de Montmartre", "geo_point_2d": [48.8877230833, 2.33207573135], "numero": "rn69053", "denomination": "JOSEPH DE MAISTRE", "y": 131920.893, "x": 599673.819, "annee": "1988", "typ": "ENSERVICE", "altitude": 70.43}},{"type": "Feature", "geometry": {"type": "Point", "coordinates": [2.390105809528618, 48.88644480167853]}, "properties": {"immeuble": "#", "designation": "Rue du", "objectid": 14589, "complement": "C\u00f4t\u00e9 pair_Sur l'immeuble immatricul\u00e9 au n\u00b077 rue Petit", "geo_point_2d": [48.8864448017, 2.39010580953], "numero": "rn75556", "denomination": "HAINAUT", "y": 131780.139, "x": 603929.338, "annee": "1992", "typ": "ENSERVICE", "altitude": 54.563}},{"type": "Feature", "geometry": {"type": "Point", "coordinates": [2.3323645748847213, 48.863994804806666]}, "properties": {"immeuble": "2", "designation": "Rue des", "objectid": 14611, "complement": "Angle place des Pyramides", "geo_point_2d": [48.8639948048, 2.33236457488], "numero": "rn03025", "denomination": "PYRAMIDES", "y": 129282.291, "x": 599694.838, "annee": "1982", "typ": "ENSERVICE", "altitude": 34.164}},{"type": "Feature", "geometry": {"type": "Point", "coordinates": [2.412755241412872, 48.86113589679223]}, "properties": {"immeuble": "#", "designation": "Rue", "objectid": 14621, "complement": "Angle rue Serpolet sur le pan coup\u00e9 du stade", "geo_point_2d": [48.8611358968, 2.41275524141], "numero": "rn80088", "denomination": "HENRI DUVERNOIS", "y": 128967.201, "x": 605593.12, "annee": "1988", "typ": "ENSERVICE", "altitude": 69.815}},{"type": "Feature", "geometry": {"type": "Point", "coordinates": [2.353977043387852, 48.852406549402055]}, "properties": {"immeuble": "8", "designation": "Rue", "objectid": 14627, "complement": "#", "geo_point_2d": [48.8524065494, 2.35397704339], "numero": "rn16079", "denomination": "BOUTAREL", "y": 127993.81, "x": 601280.754, "annee": "1990", "typ": "ENSERVICE", "altitude": 34.763}},{"type": "Feature", "geometry": {"type": "Point", "coordinates": [2.266604778897433, 48.84936030519769]}, "properties": {"immeuble": "137", "designation": "Avenue", "objectid": 14628, "complement": "#", "geo_point_2d": [48.8493603052, 2.2666047789], "numero": "rn61104", "denomination": "MOZART", "y": 127657.303, "x": 594868.773, "annee": "1994", "typ": "ENSERVICE", "altitude": 36.756}},{"type": "Feature", "geometry": {"type": "Point", "coordinates": [2.392207148919979, 48.83735468933967]}, "properties": {"immeuble": "3", "designation": "Rue de la", "objectid": 14683, "complement": "#", "geo_point_2d": [48.8373546893, 2.39220714892], "numero": "rn46143", "denomination": "LANCETTE", "y": 126321.396, "x": 604087.432, "annee": "1984", "typ": "ENSERVICE", "altitude": 37.041}},{"type": "Feature", "geometry": {"type": "Point", "coordinates": [2.36484401264024, 48.87716679762552]}, "properties": {"immeuble": "141Bis", "designation": "Quai de", "objectid": 14685, "complement": "#", "geo_point_2d": [48.8771667976, 2.36484401264], "numero": "rn40010", "denomination": "VALMY", "y": 130747.41, "x": 602077.192, "annee": "2014", "typ": "ENSERVICE", "altitude": 43.874}},{"type": "Feature", "geometry": {"type": "Point", "coordinates": [2.329973548159677, 48.86077474133996]}, "properties": {"immeuble": "#", "designation": "Quai des", "objectid": 14698, "complement": "Sur le parapet du quai haut_ En aval du pont Royal_", "geo_point_2d": [48.8607747413, 2.32997354816], "numero": "rn01078", "denomination": "TUILERIES", "y": 128924.23, "x": 599519.384, "annee": "1982", "typ": "ENSERVICE", "altitude": 35.885}},{"type": "Feature", "geometry": {"type": "Point", "coordinates": [2.402632955008067, 48.86296872106781]}, "properties": {"immeuble": "41", "designation": "Rue des", "objectid": 14739, "complement": "#", "geo_point_2d": [48.8629687211, 2.40263295501], "numero": "rn79094", "denomination": "PRAIRIES", "y": 129170.313, "x": 604850.265, "annee": "1988", "typ": "ENSERVICE", "altitude": 82.04}},{"type": "Feature", "geometry": {"type": "Point", "coordinates": [2.366473227276332, 48.857807744425806]}, "properties": {"immeuble": "#", "designation": "Rue", "objectid": 14744, "complement": "Angle rue de Bearn", "geo_point_2d": [48.8578077444, 2.36647322728], "numero": "rn11031", "denomination": "SAINT-GILLES", "y": 128594.716, "x": 602197.531, "annee": "1983", "typ": "ENSERVICE", "altitude": 34.029}},{"type": "Feature", "geometry": {"type": "Point", "coordinates": [2.320007018929222, 48.891072152786634]}, "properties": {"immeuble": "4", "designation": "Rue", "objectid": 14769, "complement": "#", "geo_point_2d": [48.8910721528, 2.32000701893], "numero": "rn68146", "denomination": "GAUTHEY", "y": 132293.434, "x": 598788.889, "annee": "1993", "typ": "ENSERVICE", "altitude": 40.484}},{"type": "Feature", "geometry": {"type": "Point", "coordinates": [2.352381652479446, 48.85227090279465]}, "properties": {"immeuble": "#", "designation": "#", "objectid": 14809, "complement": "Sur le parapet c\u00f4t\u00e9 Ile Saint-Louis_ A 18 m\u00e8tres du cand\u00e9labre IV-171", "geo_point_2d": [48.8522709028, 2.35238165248], "numero": "rn16118", "denomination": "SQUARE DE L'ILE DE FRANCE", "y": 127978.7, "x": 601163.682, "annee": "1990", "typ": "ENSERVICE", "altitude": 34.597}},{"type": "Feature", "geometry": {"type": "Point", "coordinates": [2.290329508090966, 48.852011401252014]}, "properties": {"immeuble": "3", "designation": "Rue", "objectid": 14829, "complement": "#", "geo_point_2d": [48.8520114013, 2.29032950809], "numero": "rn59064", "denomination": "SAINT-CHARLES", "y": 127950.759, "x": 596610.059, "annee": "1995", "typ": "ENSERVICE", "altitude": 31.347}},{"type": "Feature", "geometry": {"type": "Point", "coordinates": [2.266767253534641, 48.86028479902402]}, "properties": {"immeuble": "9", "designation": "Boulevard", "objectid": 14893, "complement": "Au droit du lampadaire XVI-8405", "geo_point_2d": [48.860284799, 2.26676725353], "numero": "rn62188", "denomination": "SUCHET", "y": 128872.102, "x": 594881.828, "annee": "1994", "typ": "ENSERVICE", "altitude": 51.916}},{"type": "Feature", "geometry": {"type": "Point", "coordinates": [2.3799577827368132, 48.87472056327516]}, "properties": {"immeuble": "52", "designation": "Rue", "objectid": 14924, "complement": "#", "geo_point_2d": [48.8747205633, 2.37995778274], "numero": "rn76088", "denomination": "REBEVAL", "y": 130475.916, "x": 603185.894, "annee": "1992", "typ": "ENSERVICE", "altitude": 70.895}},{"type": "Feature", "geometry": {"type": "Point", "coordinates": [2.301163770271052, 48.88537880231785]}, "properties": {"immeuble": "46", "designation": "Rue", "objectid": 14925, "complement": "#", "geo_point_2d": [48.8853788023, 2.30116377027], "numero": "rn66030", "denomination": "AMPERE", "y": 131660.804, "x": 597406.882, "annee": "1993", "typ": "ENSERVICE", "altitude": 38.14}},{"type": "Feature", "geometry": {"type": "Point", "coordinates": [2.35485238190885, 48.83794325388448]}, "properties": {"immeuble": "66", "designation": "Boulevard", "objectid": 14929, "complement": "#", "geo_point_2d": [48.8379432539, 2.35485238191], "numero": "rn18018", "denomination": "SAINT-MARCEL", "y": 126385.496, "x": 601345.37, "annee": "1980", "typ": "ENSERVICE", "altitude": 39.282}},{"type": "Feature", "geometry": {"type": "Point", "coordinates": [2.337917194149306, 48.88542807221219]}, "properties": {"immeuble": "6Bis", "designation": "Rue", "objectid": 14939, "complement": "#", "geo_point_2d": [48.8854280722, 2.33791719415], "numero": "rn70491", "denomination": "RAVIGNAN", "y": 131665.678, "x": 600102.184, "annee": "1988", "typ": "ENSERVICE", "altitude": 92.015}},{"type": "Feature", "geometry": {"type": "Point", "coordinates": [2.3787626336178143, 48.87844476648685]}, "properties": {"immeuble": "#", "designation": "#", "objectid": 14962, "complement": "Avenue du G\u00e9n\u00e9ral San Martin_ Sur la cul\u00e9e Sud-Ouest de la passerelle de l'avenue Darcel", "geo_point_2d": [48.8784447665, 2.37876263362], "numero": "rn76205", "denomination": "PARC DES BUTTES CHAUMONT", "y": 130890.0, "x": 603098.0, "annee": "1987", "typ": "ENSERVICE", "altitude": 79.998}},{"type": "Feature", "geometry": {"type": "Point", "coordinates": [2.348823630903019, 48.89040399125515]}, "properties": {"immeuble": "61", "designation": "Rue", "objectid": 14977, "complement": "#", "geo_point_2d": [48.8904039913, 2.3488236309], "numero": "rn70065", "denomination": "MARCADET", "y": 132219.077, "x": 600901.917, "annee": "1988", "typ": "ENSERVICE", "altitude": 57.374}},{"type": "Feature", "geometry": {"type": "Point", "coordinates": [2.315290876521699, 48.88074751728622]}, "properties": {"immeuble": "105", "designation": "Rue de", "objectid": 14980, "complement": "#", "geo_point_2d": [48.8807475173, 2.31529087652], "numero": "rn32048", "denomination": "MIROMESNIL", "y": 131145.414, "x": 598442.741, "annee": "1983", "typ": "ENSERVICE", "altitude": 50.102}},{"type": "Feature", "geometry": {"type": "Point", "coordinates": [2.384404261815938, 48.870016294100516]}, "properties": {"immeuble": "#", "designation": "Rue des", "objectid": 14985, "complement": "Face au n\u00b043 sur le muret", "geo_point_2d": [48.8700162941, 2.38440426182], "numero": "rn77099", "denomination": "COURONNES", "y": 129952.996, "x": 603512.374, "annee": "1995", "typ": "ENSERVICE", "altitude": 62.348}},{"type": "Feature", "geometry": {"type": "Point", "coordinates": [2.290413454955557, 48.85959087687117]}, "properties": {"immeuble": "#", "designation": "Avenue de", "objectid": 15009, "complement": "A 100 m\u00e8tres en aval du pont d'I\u00e9na", "geo_point_2d": [48.8595908769, 2.29041345496], "numero": "rn62230", "denomination": "NEW YORK", "y": 128793.598, "x": 596616.74, "annee": "1994", "typ": "ENSERVICE", "altitude": 35.368}},{"type": "Feature", "geometry": {"type": "Point", "coordinates": [2.373380805559431, 48.863944205350585]}, "properties": {"immeuble": "8", "designation": "Rue du", "objectid": 15012, "complement": "Pr\u00e8s de la rue Pihet", "geo_point_2d": [48.8639442054, 2.37338080556], "numero": "rn42139", "denomination": "MARCHE POPINCOURT", "y": 129277.32, "x": 602704.048, "annee": "1985", "typ": "ENSERVICE", "altitude": 41.463}},{"type": "Feature", "geometry": {"type": "Point", "coordinates": [2.393831010658404, 48.85387525011472]}, "properties": {"immeuble": "39", "designation": "Rue", "objectid": 15015, "complement": "A l'angle du passage du Bureau_ Sur l'\u00e9cole municipale", "geo_point_2d": [48.8538752501, 2.39383101066], "numero": "rn44034", "denomination": "ALEXANDRE DUMAS", "y": 128158.584, "x": 604205.248, "annee": "1996", "typ": "ENSERVICE", "altitude": 54.232}},{"type": "Feature", "geometry": {"type": "Point", "coordinates": [2.368918179794374, 48.867290396323135]}, "properties": {"immeuble": "10", "designation": "Boulevard", "objectid": 15043, "complement": "#", "geo_point_2d": [48.8672903963, 2.36891817979], "numero": "rn41037", "denomination": "JULES FERRY", "y": 129649.268, "x": 602376.484, "annee": "1984", "typ": "ENSERVICE", "altitude": 35.752}},{"type": "Feature", "geometry": {"type": "Point", "coordinates": [2.329549673759959, 48.882899057618495]}, "properties": {"immeuble": "6", "designation": "Place", "objectid": 15055, "complement": "#", "geo_point_2d": [48.8828990576, 2.32954967376], "numero": "rn33019", "denomination": "ADOLPHE MAX", "y": 131384.472, "x": 599488.527, "annee": "1985", "typ": "ENSERVICE", "altitude": 57.833}},{"type": "Feature", "geometry": {"type": "Point", "coordinates": [2.39167577173811, 48.85184139852017]}, "properties": {"immeuble": "10", "designation": "Passage", "objectid": 15065, "complement": "#", "geo_point_2d": [48.8518413985, 2.39167577174], "numero": "rn44110", "denomination": "GUENOT", "y": 127932.3, "x": 604047.258, "annee": "1985", "typ": "ENSERVICE", "altitude": 48.148}},{"type": "Feature", "geometry": {"type": "Point", "coordinates": [2.372754613337027, 48.8688476486532]}, "properties": {"immeuble": "#", "designation": "Rue du", "objectid": 15121, "complement": "A l'angle de la rue Darboy_ Sur l'\u00e9glise Saint-Joseph", "geo_point_2d": [48.8688476487, 2.37275461334], "numero": "rn41024", "denomination": "CHEVET", "y": 129822.564, "x": 602657.848, "annee": "1985", "typ": "ENSERVICE", "altitude": 46.654}},{"type": "Feature", "geometry": {"type": "Point", "coordinates": [2.252546384289108, 48.84515419093439]}, "properties": {"immeuble": "#", "designation": "Rue", "objectid": 15131, "complement": "Piscine Molitor_ Entre le boulevard d'Auteuil et l'avenue de la Porte Molitor", "geo_point_2d": [48.8451541909, 2.25254638429], "numero": "rn61069", "denomination": "NUNGESSER ET COLI", "y": 127190.638, "x": 593836.536, "annee": "1994", "typ": "ENSERVICE", "altitude": 36.011}},{"type": "Feature", "geometry": {"type": "Point", "coordinates": [2.366225855719452, 48.865443326505876]}, "properties": {"immeuble": "151", "designation": "Rue", "objectid": 15160, "complement": "#", "geo_point_2d": [48.8654433265, 2.36622585572], "numero": "rn41078", "denomination": "AMELOT", "y": 129443.791, "x": 602179.051, "annee": "1985", "typ": "ENSERVICE", "altitude": 34.792}},{"type": "Feature", "geometry": {"type": "Point", "coordinates": [2.405670468689252, 48.84393026590003]}, "properties": {"immeuble": "46", "designation": "Avenue du", "objectid": 15187, "complement": "#", "geo_point_2d": [48.8439302659, 2.40567046869], "numero": "rn45093", "denomination": "DOCTEUR ARNOLD NETTER", "y": 127053.423, "x": 605075.049, "annee": "1984", "typ": "ENSERVICE", "altitude": 43.909}},{"type": "Feature", "geometry": {"type": "Point", "coordinates": [2.35136602169999, 48.86126131372865]}, "properties": {"immeuble": "135", "designation": "Rue", "objectid": 15189, "complement": "#", "geo_point_2d": [48.8612613137, 2.3513660217], "numero": "rn13001", "denomination": "SAINT-MARTIN", "y": 128978.425, "x": 601088.961, "annee": "1995", "typ": "ENSERVICE", "altitude": 36.105}},{"type": "Feature", "geometry": {"type": "Point", "coordinates": [2.389194194308241, 48.86785666096216]}, "properties": {"immeuble": "5", "designation": "Rue des", "objectid": 15213, "complement": "Face au n\u00b06 sur la maison des Amandiers", "geo_point_2d": [48.867856661, 2.38919419431], "numero": "rn79142", "denomination": "PLATRIERES", "y": 129713.078, "x": 603863.917, "annee": "1988", "typ": "ENSERVICE", "altitude": 69.829}},{"type": "Feature", "geometry": {"type": "Point", "coordinates": [2.36995479128182, 48.89695207498139]}, "properties": {"immeuble": "189", "designation": "Rue d'", "objectid": 15218, "complement": "Sur la porte n\u00b017", "geo_point_2d": [48.896952075, 2.36995479128], "numero": "rn72107", "denomination": "AUBERVILLIERS", "y": 132947.7, "x": 602451.09, "annee": "1988", "typ": "ENSERVICE", "altitude": 52.479}},{"type": "Feature", "geometry": {"type": "Point", "coordinates": [2.321110783473198, 48.88535520937065]}, "properties": {"immeuble": "66", "designation": "Rue", "objectid": 15254, "complement": "#", "geo_point_2d": [48.8853552094, 2.32111078347], "numero": "rn67178", "denomination": "LA CONDAMINE", "y": 131657.689, "x": 598869.69, "annee": "1993", "typ": "ENSERVICE", "altitude": 52.621}},{"type": "Feature", "geometry": {"type": "Point", "coordinates": [2.263817427272074, 48.83990208870935]}, "properties": {"immeuble": "185", "designation": "Avenue de", "objectid": 15266, "complement": "Sur l'\u00e9cole", "geo_point_2d": [48.8399020887, 2.26381742727], "numero": "rn61018", "denomination": "VERSAILLES", "y": 126605.738, "x": 594663.195, "annee": "1994", "typ": "ENSERVICE", "altitude": 37.914}},{"type": "Feature", "geometry": {"type": "Point", "coordinates": [2.332351383221598, 48.89429603078351]}, "properties": {"immeuble": "192", "designation": "Rue", "objectid": 15302, "complement": "Angle rue Vauvenargues", "geo_point_2d": [48.8942960308, 2.33235138322], "numero": "rn69253", "denomination": "CHAMPIONNET", "y": 132651.808, "x": 599694.078, "annee": "1988", "typ": "ENSERVICE", "altitude": 55.314}},{"type": "Feature", "geometry": {"type": "Point", "coordinates": [2.370511036575018, 48.882636106062236]}, "properties": {"immeuble": "4", "designation": "Place de", "objectid": 15343, "complement": "Entre les avenues Secretan et Jean Jaur\u00e8s", "geo_point_2d": [48.8826361061, 2.37051103658], "numero": "rn73193", "denomination": "STALINGRAD", "y": 131355.773, "x": 602492.58, "annee": "2014", "typ": "ENSERVICE", "altitude": 52.248}},{"type": "Feature", "geometry": {"type": "Point", "coordinates": [2.275505487937282, 48.87096819022814]}, "properties": {"immeuble": "#", "designation": "Boulevard", "objectid": 15346, "complement": "Sur la gare SNCF", "geo_point_2d": [48.8709681902, 2.27550548794], "numero": "rn63167", "denomination": "LANNES", "y": 130059.543, "x": 595523.935, "annee": "1994", "typ": "ENSERVICE", "altitude": 46.867}},{"type": "Feature", "geometry": {"type": "Point", "coordinates": [2.3830651097496203, 48.88599475507956]}, "properties": {"immeuble": "21", "designation": "Rue de", "objectid": 15348, "complement": "Angle avenue Jean Jaur\u00e8s", "geo_point_2d": [48.8859947551, 2.38306510975], "numero": "rn75315", "denomination": "LORRAINE", "y": 131729.75, "x": 603413.052, "annee": "1992", "typ": "ENSERVICE", "altitude": 53.828}},{"type": "Feature", "geometry": {"type": "Point", "coordinates": [2.269715038915188, 48.85127739830627]}, "properties": {"immeuble": "18", "designation": "Rue", "objectid": 15374, "complement": "#", "geo_point_2d": [48.8512773983, 2.26971503892], "numero": "rn61174", "denomination": "RIBERA", "y": 127870.277, "x": 595097.218, "annee": "1994", "typ": "ENSERVICE", "altitude": 34.97}},{"type": "Feature", "geometry": {"type": "Point", "coordinates": [2.377719339357751, 48.88460041677242]}, "properties": {"immeuble": "74", "designation": "Avenue", "objectid": 15375, "complement": "Face \u00e0 la villa R\u00e9my Belleau", "geo_point_2d": [48.8846004168, 2.37771933936], "numero": "rn73200", "denomination": "JEAN JAURES", "y": 131574.47, "x": 603021.11, "annee": "1992", "typ": "ENSERVICE", "altitude": 51.951}},{"type": "Feature", "geometry": {"type": "Point", "coordinates": [2.341234418082339, 48.84833753199654]}, "properties": {"immeuble": "52", "designation": "Boulevard", "objectid": 15466, "complement": "#", "geo_point_2d": [48.848337532, 2.34123441808], "numero": "rn22067", "denomination": "SAINT-MICHEL", "y": 127541.194, "x": 600345.683, "annee": "1981", "typ": "ENSERVICE", "altitude": 47.449}},{"type": "Feature", "geometry": {"type": "Point", "coordinates": [2.346742612785742, 48.86064608138029]}, "properties": {"immeuble": "#", "designation": "Rue des", "objectid": 15476, "complement": "Angle place Marguerite de Navarre sur le pilier", "geo_point_2d": [48.8606460814, 2.34674261279], "numero": "rn02066", "denomination": "INNOCENTS", "y": 128909.954, "x": 600749.749, "annee": "1995", "typ": "ENSERVICE", "altitude": 36.225}},{"type": "Feature", "geometry": {"type": "Point", "coordinates": [2.294802465151815, 48.876604406974344]}, "properties": {"immeuble": "12Bis", "designation": "Avenue", "objectid": 15519, "complement": "Pr\u00e8s de la rue Troyon", "geo_point_2d": [48.876604407, 2.29480246515], "numero": "rn65052", "denomination": "MAC-MAHON", "y": 130685.325, "x": 596939.832, "annee": "1993", "typ": "ENSERVICE", "altitude": 48.231}},{"type": "Feature", "geometry": {"type": "Point", "coordinates": [2.288107651726619, 48.87183643061589]}, "properties": {"immeuble": "42", "designation": "Rue", "objectid": 15536, "complement": "#", "geo_point_2d": [48.8718364306, 2.28810765173], "numero": "rn64133", "denomination": "PAUL VALERY", "y": 130155.418, "x": 596448.44, "annee": "1994", "typ": "ENSERVICE", "altitude": 55.88}},{"type": "Feature", "geometry": {"type": "Point", "coordinates": [2.352281334312908, 48.87815841412834]}, "properties": {"immeuble": "111", "designation": "Rue", "objectid": 15547, "complement": "Angle rue Bossuet", "geo_point_2d": [48.8781584141, 2.35228133431], "numero": "rn37038", "denomination": "LA FAYETTE", "y": 130857.408, "x": 601155.737, "annee": "1986", "typ": "ENSERVICE", "altitude": 47.214}},{"type": "Feature", "geometry": {"type": "Point", "coordinates": [2.291932628713419, 48.83916026972841]}, "properties": {"immeuble": "152", "designation": "Rue de la", "objectid": 15564, "complement": "Angle rue Lecourbe", "geo_point_2d": [48.8391602697, 2.29193262871], "numero": "rn57055", "denomination": "CONVENTION", "y": 126521.633, "x": 596726.848, "annee": "1984", "typ": "ENSERVICE", "altitude": 33.496}},{"type": "Feature", "geometry": {"type": "Point", "coordinates": [2.352060332585342, 48.834005288235424]}, "properties": {"immeuble": "#", "designation": "Rue de", "objectid": 15571, "complement": "Face au n\u00b013", "geo_point_2d": [48.8340052882, 2.35206033259], "numero": "rn52028", "denomination": "CROULEBARBE", "y": 125947.545, "x": 601140.508, "annee": "1982", "typ": "ENSERVICE", "altitude": 42.701}},{"type": "Feature", "geometry": {"type": "Point", "coordinates": [2.356912309598314, 48.869222077353584]}, "properties": {"immeuble": "#", "designation": "Rue", "objectid": 15574, "complement": "Face au n\u00b084 sur l'\u00e9cole internationale de mimodrame", "geo_point_2d": [48.8692220774, 2.3569123096], "numero": "rn39062", "denomination": "RENE BOULANGER", "y": 129863.763, "x": 601495.66, "annee": "1986", "typ": "ENSERVICE", "altitude": 37.593}},{"type": "Feature", "geometry": {"type": "Point", "coordinates": [2.375914852689627, 48.867598605016624]}, "properties": {"immeuble": "1", "designation": "Rue des", "objectid": 15650, "complement": "Pr\u00e8s de la rue Saint-Maur", "geo_point_2d": [48.867598605, 2.37591485269], "numero": "rn41048", "denomination": "TROIS COURONNES", "y": 129683.786, "x": 602889.752, "annee": "1985", "typ": "ENSERVICE", "altitude": 43.086}},{"type": "Feature", "geometry": {"type": "Point", "coordinates": [2.326256025268343, 48.882697311179705]}, "properties": {"immeuble": "41", "designation": "Rue de", "objectid": 15658, "complement": "#", "geo_point_2d": [48.8826973112, 2.32625602527], "numero": "rn32061", "denomination": "SAINT-PETERSBOURG", "y": 131362.065, "x": 599246.973, "annee": "1982", "typ": "ENSERVICE", "altitude": 56.384}},{"type": "Feature", "geometry": {"type": "Point", "coordinates": [2.3316929001757343, 48.88152535366988]}, "properties": {"immeuble": "72", "designation": "Rue", "objectid": 15668, "complement": "Face \u00e0 la rue Ballu", "geo_point_2d": [48.8815253537, 2.33169290018], "numero": "rn33057", "denomination": "BLANCHE", "y": 131231.703, "x": 599645.697, "annee": "1985", "typ": "ENSERVICE", "altitude": 50.94}},{"type": "Feature", "geometry": {"type": "Point", "coordinates": [2.35976864478009, 48.85148528646013]}, "properties": {"immeuble": "#", "designation": "Quai d'", "objectid": 15674, "complement": "Face au n\u00b09_ Sur l'angle du mur du quai bas", "geo_point_2d": [48.8514852865, 2.35976864478], "numero": "rn16094", "denomination": "ANJOU", "y": 127891.48, "x": 601705.792, "annee": "1990", "typ": "ENSERVICE", "altitude": 30.368}},{"type": "Feature", "geometry": {"type": "Point", "coordinates": [2.297435239679724, 48.84526352885061]}, "properties": {"immeuble": "150", "designation": "Rue du", "objectid": 15694, "complement": "Pr\u00e8s de la rue de la Croix Nivert", "geo_point_2d": [48.8452635289, 2.29743523968], "numero": "rn59036", "denomination": "THEATRE", "y": 127200.094, "x": 597131.111, "annee": "1984", "typ": "ENSERVICE", "altitude": 35.483}},{"type": "Feature", "geometry": {"type": "Point", "coordinates": [2.357821231947477, 48.85102126324175]}, "properties": {"immeuble": "#", "designation": "Rue", "objectid": 15738, "complement": "Face au n\u00b06 sur l'\u00e9glise Saint-Louis en l'\u00eele", "geo_point_2d": [48.8510212632, 2.35782123195], "numero": "rn16085", "denomination": "POULLETIER", "y": 127839.838, "x": 601562.896, "annee": "1990", "typ": "ENSERVICE", "altitude": 34.371}},{"type": "Feature", "geometry": {"type": "Point", "coordinates": [2.394749976470984, 48.89369451587523]}, "properties": {"immeuble": "#", "designation": "Boulevard", "objectid": 15761, "complement": "Face au cand\u00e9labre XIX-1086_Sur le mur-bahut du boulevard P\u00e9riph\u00e9rique", "geo_point_2d": [48.8936945159, 2.39474997647], "numero": "rn74185", "denomination": "SERURIER", "y": 132586.565, "x": 604269.292, "annee": "1987", "typ": "ENSERVICE", "altitude": 58.404}},{"type": "Feature", "geometry": {"type": "Point", "coordinates": [2.391846747108851, 48.88491640839846]}, "properties": {"immeuble": "62", "designation": "All\u00e9e", "objectid": 15837, "complement": "#", "geo_point_2d": [48.8849164084, 2.39184674711], "numero": "rn75595", "denomination": "DARIUS MILHAUD", "y": 131610.273, "x": 604057.13, "annee": "1995", "typ": "ENSERVICE", "altitude": 56.855}},{"type": "Feature", "geometry": {"type": "Point", "coordinates": [2.324226837549505, 48.83327631400512]}, "properties": {"immeuble": "183", "designation": "Rue du", "objectid": 15839, "complement": "Pr\u00e8s de l'avenue du Maine", "geo_point_2d": [48.833276314, 2.32422683755], "numero": "rn56026", "denomination": "CHATEAU", "y": 125866.437, "x": 599097.224, "annee": "1982", "typ": "ENSERVICE", "altitude": 62.04}},{"type": "Feature", "geometry": {"type": "Point", "coordinates": [2.368504887713439, 48.900298730922486]}, "properties": {"immeuble": "#", "designation": "Avenue de la", "objectid": 15926, "complement": "Sur la bretelle de sortie du B.P. Porte d'Aubervilliers_ Sur l'\u00e9cole_ Face au cand\u00e9labre XVIII-5015", "geo_point_2d": [48.9002987309, 2.36850488771], "numero": "rn72125", "denomination": "PORTE D'AUBERVILLIERS", "y": 133319.804, "x": 602344.631, "annee": "1988", "typ": "ENSERVICE", "altitude": 45.447}},{"type": "Feature", "geometry": {"type": "Point", "coordinates": [2.330058524511562, 48.82094783229947]}, "properties": {"immeuble": "#", "designation": "Rue", "objectid": 15935, "complement": "Face \u00e0 l'avenue Paul Appell", "geo_point_2d": [48.8209478323, 2.33005852451], "numero": "rn54013", "denomination": "EMILE FAGUET", "y": 124495.447, "x": 599525.211, "annee": "1982", "typ": "ENSERVICE", "altitude": 75.931}},{"type": "Feature", "geometry": {"type": "Point", "coordinates": [2.419687204332786, 48.843534300822256]}, "properties": {"immeuble": "6", "designation": "Avenue de", "objectid": 15962, "complement": "94-SAINT-MANDE_ Pr\u00e8s de la chauss\u00e9e de l'Etang_", "geo_point_2d": [48.8435343008, 2.41968720433], "numero": "rn94183", "denomination": "LIEGE", "y": 127010.429, "x": 606103.869, "annee": "1996", "typ": "ENSERVICE", "altitude": 50.69}},{"type": "Feature", "geometry": {"type": "Point", "coordinates": [2.342701833523103, 48.88278863697345]}, "properties": {"immeuble": "84", "designation": "Boulevard de", "objectid": 15970, "complement": "#", "geo_point_2d": [48.882788637, 2.34270183352], "numero": "rn70166", "denomination": "ROCHECHOUART", "y": 131372.189, "x": 600453.086, "annee": "1988", "typ": "ENSERVICE", "altitude": 67.452}},{"type": "Feature", "geometry": {"type": "Point", "coordinates": [2.385963496304651, 48.85888373816662]}, "properties": {"immeuble": "15", "designation": "Rue", "objectid": 15972, "complement": "Pr\u00e8s de la rue de la Roquette", "geo_point_2d": [48.8588837382, 2.3859634963], "numero": "rn43192", "denomination": "GERBIER", "y": 128715.122, "x": 603627.559, "annee": "1985", "typ": "ENSERVICE", "altitude": 47.869}},{"type": "Feature", "geometry": {"type": "Point", "coordinates": [2.312873888731055, 48.876239813893974]}, "properties": {"immeuble": "#", "designation": "Place de", "objectid": 15991, "complement": "Angle 10 rue de T\u00e9h\u00e9ran", "geo_point_2d": [48.8762398139, 2.31287388873], "numero": "rn32027", "denomination": "NARVIK", "y": 130644.207, "x": 598265.315, "annee": "1983", "typ": "ENSERVICE", "altitude": 41.073}},{"type": "Feature", "geometry": {"type": "Point", "coordinates": [2.399139733027606, 48.857871570616055]}, "properties": {"immeuble": "104", "designation": "Rue de la", "objectid": 16008, "complement": "#", "geo_point_2d": [48.8578715706, 2.39913973303], "numero": "rn79078", "denomination": "REUNION", "y": 128603.288, "x": 604594.442, "annee": "1988", "typ": "ENSERVICE", "altitude": 67.2}},{"type": "Feature", "geometry": {"type": "Point", "coordinates": [2.318350737434297, 48.89234711065289]}, "properties": {"immeuble": "8", "designation": "Rue", "objectid": 16009, "complement": "#", "geo_point_2d": [48.8923471107, 2.31835073743], "numero": "rn68056", "denomination": "BERZELIUS", "y": 132435.238, "x": 598667.475, "annee": "1993", "typ": "ENSERVICE", "altitude": 37.003}},{"type": "Feature", "geometry": {"type": "Point", "coordinates": [2.3816300858783412, 48.86951094495262]}, "properties": {"immeuble": "9", "designation": "Rue des", "objectid": 16040, "complement": "#", "geo_point_2d": [48.869510945, 2.38163008588], "numero": "rn77041", "denomination": "COURONNES", "y": 129896.675, "x": 603308.901, "annee": "1995", "typ": "ENSERVICE", "altitude": 58.222}},{"type": "Feature", "geometry": {"type": "Point", "coordinates": [2.389602144641977, 48.841174313637346]}, "properties": {"immeuble": "163", "designation": "Avenue", "objectid": 16056, "complement": "Pr\u00e8s de la rue Elisa Lemonnier", "geo_point_2d": [48.8411743136, 2.38960214464], "numero": "rn46073", "denomination": "DAUMESNIL", "y": 126746.003, "x": 603895.914, "annee": "1995", "typ": "ENSERVICE", "altitude": 42.52}},{"type": "Feature", "geometry": {"type": "Point", "coordinates": [2.306502047883795, 48.877551137083834]}, "properties": {"immeuble": "64", "designation": "Rue de", "objectid": 16077, "complement": "#", "geo_point_2d": [48.8775511371, 2.30650204788], "numero": "rn32103", "denomination": "COURCELLES", "y": 130790.193, "x": 597798.011, "annee": "1983", "typ": "ENSERVICE", "altitude": 46.91}},{"type": "Feature", "geometry": {"type": "Point", "coordinates": [2.40644514608003, 48.86637883100096]}, "properties": {"immeuble": "#", "designation": "Place", "objectid": 16104, "complement": "Angle 28 rue du Capitaine Ferber sur le pan coup\u00e9", "geo_point_2d": [48.866378831, 2.40644514608], "numero": "rn78166", "denomination": "OCTAVE CHANUTE", "y": 129549.771, "x": 605129.608, "annee": "1988", "typ": "ENSERVICE", "altitude": 89.818}},{"type": "Feature", "geometry": {"type": "Point", "coordinates": [2.340443747286332, 48.8859969744313]}, "properties": {"immeuble": "#", "designation": "Rue du", "objectid": 16137, "complement": "C\u00f4t\u00e9 pair au premier quart de la vol\u00e9e d'escaliers", "geo_point_2d": [48.8859969744, 2.34044374729], "numero": "rn70519", "denomination": "CALVAIRE", "y": 131728.947, "x": 600287.465, "annee": "1988", "typ": "ENSERVICE", "altitude": 114.791}},{"type": "Feature", "geometry": {"type": "Point", "coordinates": [2.277889907671367, 48.85607548662525]}, "properties": {"immeuble": "#", "designation": "Place", "objectid": 16151, "complement": "A l'angle de la rue Alfred Bruneau_ C\u00f4t\u00e9 pair", "geo_point_2d": [48.8560754866, 2.27788990767], "numero": "rn62069", "denomination": "CHOPIN", "y": 128403.326, "x": 595697.548, "annee": "1994", "typ": "ENSERVICE", "altitude": 56.222}},{"type": "Feature", "geometry": {"type": "Point", "coordinates": [2.385789073708979, 48.85538157011193]}, "properties": {"immeuble": "9", "designation": "Impasse", "objectid": 16156, "complement": "#", "geo_point_2d": [48.8553815701, 2.38578907371], "numero": "rn43210", "denomination": "DELAUNAY", "y": 128325.67, "x": 603615.013, "annee": "1985", "typ": "ENSERVICE", "altitude": 41.79}},{"type": "Feature", "geometry": {"type": "Point", "coordinates": [2.388045559619817, 48.87780131460621]}, "properties": {"immeuble": "64", "designation": "Rue de la", "objectid": 16179, "complement": "#", "geo_point_2d": [48.8778013146, 2.38804555962], "numero": "rn75162", "denomination": "VILLETTE", "y": 130818.872, "x": 603778.904, "annee": "1992", "typ": "ENSERVICE", "altitude": 100.436}},{"type": "Feature", "geometry": {"type": "Point", "coordinates": [2.359177265925421, 48.8642019687787]}, "properties": {"immeuble": "148", "designation": "Rue du", "objectid": 16182, "complement": "#", "geo_point_2d": [48.8642019688, 2.35917726593], "numero": "rn10009", "denomination": "TEMPLE", "y": 129305.571, "x": 601661.978, "annee": "1983", "typ": "ENSERVICE", "altitude": 34.213}},{"type": "Feature", "geometry": {"type": "Point", "coordinates": [2.348475381290932, 48.85238398785101]}, "properties": {"immeuble": "#", "designation": "Quai de", "objectid": 16224, "complement": "Sur le pont Au Double_ En amont", "geo_point_2d": [48.8523839879, 2.34847538129], "numero": "rn20056", "denomination": "MONTEBELLO", "y": 127991.222, "x": 600877.024, "annee": "1980", "typ": "ENSERVICE", "altitude": 35.512}},{"type": "Feature", "geometry": {"type": "Point", "coordinates": [2.382786222398872, 48.88007089329689]}, "properties": {"immeuble": "#", "designation": "#", "objectid": 16227, "complement": "Route circulaire du lac_Sous le pont des Suicid\u00e9s menant au belv\u00e9d\u00e8re_Sur le rocher", "geo_point_2d": [48.8800708933, 2.3827862224], "numero": "rn76195", "denomination": "PARC DES BUTTES CHAUMONT", "y": 131071.0, "x": 603393.0, "annee": "1987", "typ": "ENSERVICE", "altitude": 59.668}},{"type": "Feature", "geometry": {"type": "Point", "coordinates": [2.32955964571555, 48.84277487953181]}, "properties": {"immeuble": "141", "designation": "Boulevard", "objectid": 16233, "complement": "#", "geo_point_2d": [48.8427748795, 2.32955964572], "numero": "rn23060", "denomination": "RASPAIL", "y": 126922.635, "x": 599488.818, "annee": "1982", "typ": "ENSERVICE", "altitude": 50.852}},{"type": "Feature", "geometry": {"type": "Point", "coordinates": [2.25477020274526, 48.84007613348703]}, "properties": {"immeuble": "27", "designation": "Avenue du", "objectid": 16265, "complement": "A l'angle de la rue du G\u00e9n\u00e9ral Roques_ Sur l'\u00e9cole", "geo_point_2d": [48.8400761335, 2.25477020275], "numero": "rn61022", "denomination": "PARC DES PRINCES", "y": 126625.775, "x": 593999.135, "annee": "1994", "typ": "ENSERVICE", "altitude": 39.084}},{"type": "Feature", "geometry": {"type": "Point", "coordinates": [2.3884014163042773, 48.86301984158767]}, "properties": {"immeuble": "6", "designation": "Avenue", "objectid": 16271, "complement": "#", "geo_point_2d": [48.8630198416, 2.3884014163], "numero": "rn79044", "denomination": "GAMBETTA", "y": 129175.18, "x": 603806.125, "annee": "1988", "typ": "ENSERVICE", "altitude": 61.047}},{"type": "Feature", "geometry": {"type": "Point", "coordinates": [2.402312002395697, 48.840774829627954]}, "properties": {"immeuble": "41", "designation": "Rue de", "objectid": 16355, "complement": "#", "geo_point_2d": [48.8407748296, 2.4023120024], "numero": "rn45132", "denomination": "TOUL", "y": 126702.316, "x": 604828.855, "annee": "1984", "typ": "ENSERVICE", "altitude": 44.691}},{"type": "Feature", "geometry": {"type": "Point", "coordinates": [2.405441229765489, 48.86331607599196]}, "properties": {"immeuble": "12", "designation": "Rue des", "objectid": 16368, "complement": "#", "geo_point_2d": [48.863316076, 2.40544122977], "numero": "rn78061", "denomination": "LYANES", "y": 129209.123, "x": 605056.267, "annee": "1988", "typ": "ENSERVICE", "altitude": 75.792}},{"type": "Feature", "geometry": {"type": "Point", "coordinates": [2.335055672160705, 48.885668359667044]}, "properties": {"immeuble": "63", "designation": "Rue des", "objectid": 16376, "complement": "Pr\u00e9s de la rue Tholoze", "geo_point_2d": [48.8856683597, 2.33505567216], "numero": "rn69470", "denomination": "ABBESSES", "y": 131692.398, "x": 599892.336, "annee": "1988", "typ": "ENSERVICE", "altitude": 79.321}},{"type": "Feature", "geometry": {"type": "Point", "coordinates": [2.2936083306108372, 48.87572707959782]}, "properties": {"immeuble": "12", "designation": "Avenue", "objectid": 16385, "complement": "Angle rue du G\u00e9n\u00e9ral Lanrezac", "geo_point_2d": [48.8757270796, 2.29360833061], "numero": "rn65063", "denomination": "CARNOT", "y": 130587.815, "x": 596852.189, "annee": "1993", "typ": "ENSERVICE", "altitude": 51.594}},{"type": "Feature", "geometry": {"type": "Point", "coordinates": [2.319421836361372, 48.83476586721825]}, "properties": {"immeuble": "48", "designation": "Rue", "objectid": 16415, "complement": "#", "geo_point_2d": [48.8347658672, 2.31942183636], "numero": "rn56077", "denomination": "RAYMOND LOSSERAND", "y": 126032.145, "x": 598744.52, "annee": "1996", "typ": "ENSERVICE", "altitude": 65.171}},{"type": "Feature", "geometry": {"type": "Point", "coordinates": [2.306261206363524, 48.87832064630053]}, "properties": {"immeuble": "6", "designation": "Avenue", "objectid": 16439, "complement": "Sur le muret de cl\u00f4ture", "geo_point_2d": [48.8783206463, 2.30626120636], "numero": "rn32112", "denomination": "VAN DYCK", "y": 130875.77, "x": 597780.381, "annee": "1983", "typ": "ENSERVICE", "altitude": 45.407}},{"type": "Feature", "geometry": {"type": "Point", "coordinates": [2.37558706235521, 48.87814409346098]}, "properties": {"immeuble": "5", "designation": "Rue", "objectid": 16445, "complement": "#", "geo_point_2d": [48.8781440935, 2.37558706236], "numero": "rn76147", "denomination": "GEORGES LARDENNOIS", "y": 130856.439, "x": 602865.105, "annee": "1987", "typ": "ENSERVICE", "altitude": 73.175}},{"type": "Feature", "geometry": {"type": "Point", "coordinates": [2.331245120017681, 48.87708957837945]}, "properties": {"immeuble": "#", "designation": "Rue", "objectid": 16460, "complement": "Face au n\u00b01 sur l'\u00e9glise de la Trinit\u00e9", "geo_point_2d": [48.8770895784, 2.33124512002], "numero": "rn33110", "denomination": "MORLOT", "y": 130738.444, "x": 599612.819, "annee": "1985", "typ": "ENSERVICE", "altitude": 36.132}},{"type": "Feature", "geometry": {"type": "Point", "coordinates": [2.395851353294129, 48.876784974626105]}, "properties": {"immeuble": "#", "designation": "Rue", "objectid": 16462, "complement": "Face au n\u00b04_Sur l'\u00e9dicule en briques", "geo_point_2d": [48.8767849746, 2.39585135329], "numero": "rn75511", "denomination": "JEAN QUARRE", "y": 130706.276, "x": 604351.515, "annee": "1992", "typ": "ENSERVICE", "altitude": 113.741}},{"type": "Feature", "geometry": {"type": "Point", "coordinates": [2.382016366672489, 48.8524699191621]}, "properties": {"immeuble": "3", "designation": "Rue", "objectid": 21886, "complement": "#", "geo_point_2d": [48.8524699192, 2.38201636667], "numero": "rn44018", "denomination": "CHANZY", "y": 128001.718, "x": 603338.369, "annee": "1982", "typ": "ENSERVICE", "altitude": 36.043}},{"type": "Feature", "geometry": {"type": "Point", "coordinates": [2.334611064601723, 48.864112101423615]}, "properties": {"immeuble": "8", "designation": "Rue de l'", "objectid": 21930, "complement": "A gauche de la porte d'entr\u00e9e", "geo_point_2d": [48.8641121014, 2.3346110646], "numero": "rn03027", "denomination": "ECHELLE", "y": 129295.328, "x": 599859.655, "annee": "1982", "typ": "ENSERVICE", "altitude": 34.51}},{"type": "Feature", "geometry": {"type": "Point", "coordinates": [2.312528554819966, 48.843003827926864]}, "properties": {"immeuble": "#", "designation": "Boulevard", "objectid": 21978, "complement": "Angle rue de Vaugirard sur le m\u00e9tropolitain", "geo_point_2d": [48.8430038279, 2.31252855482], "numero": "rn58039", "denomination": "PASTEUR", "y": 126948.35, "x": 598238.786, "annee": "1984", "typ": "ENSERVICE", "altitude": 43.488}},{"type": "Feature", "geometry": {"type": "Point", "coordinates": [2.320440360437348, 48.895153053667634]}, "properties": {"immeuble": "72", "designation": "Rue", "objectid": 16489, "complement": "#", "geo_point_2d": [48.8951530537, 2.32044036044], "numero": "rn68082", "denomination": "BERZELIUS", "y": 132747.226, "x": 598820.764, "annee": "1993", "typ": "ENSERVICE", "altitude": 36.916}},{"type": "Feature", "geometry": {"type": "Point", "coordinates": [2.335485449777282, 48.88635849482949]}, "properties": {"immeuble": "14", "designation": "Rue", "objectid": 16514, "complement": "#", "geo_point_2d": [48.8863584948, 2.33548544978], "numero": "rn69507", "denomination": "THOLOZE", "y": 131769.141, "x": 599923.855, "annee": "1988", "typ": "ENSERVICE", "altitude": 85.738}},{"type": "Feature", "geometry": {"type": "Point", "coordinates": [2.362385025200812, 48.82325399171131]}, "properties": {"immeuble": "62", "designation": "Avenue de", "objectid": 22003, "complement": "Sur le mur du porche c\u00f4t\u00e9 boulevard Massena", "geo_point_2d": [48.8232539917, 2.3623850252], "numero": "rn50185", "denomination": "CHOISY", "y": 124752.201, "x": 601898.851, "annee": "1995", "typ": "ENSERVICE", "altitude": 54.601}},{"type": "Feature", "geometry": {"type": "Point", "coordinates": [2.366455918760197, 48.827232848431805]}, "properties": {"immeuble": "86", "designation": "Rue", "objectid": 22008, "complement": "#", "geo_point_2d": [48.8272328484, 2.36645591876], "numero": "rn50217", "denomination": "NATIONALE", "y": 125194.764, "x": 602197.589, "annee": "1995", "typ": "ENSERVICE", "altitude": 53.12}},{"type": "Feature", "geometry": {"type": "Point", "coordinates": [2.262184926323051, 48.858468337994445]}, "properties": {"immeuble": "#", "designation": "Route des", "objectid": 22019, "complement": "Sur la bretelle d'entr\u00e9e du boulevard P\u00e9riph\u00e9rique int\u00e9rieur_ Sur l'extr\u00e9mit\u00e9 du mur de sout\u00e8nement", "geo_point_2d": [48.858468338, 2.26218492632], "numero": "rn62106", "denomination": "LACS A PASSY", "y": 128670.433, "x": 594545.415, "annee": "1994", "typ": "ENSERVICE", "altitude": 50.502}},{"type": "Feature", "geometry": {"type": "Point", "coordinates": [2.327322552976653, 48.88902143675479]}, "properties": {"immeuble": "11", "designation": "Rue", "objectid": 22025, "complement": "#", "geo_point_2d": [48.8890214368, 2.32732255298], "numero": "rn69429", "denomination": "FAUVET", "y": 132065.302, "x": 599325.281, "annee": "1988", "typ": "ENSERVICE", "altitude": 55.476}},{"type": "Feature", "geometry": {"type": "Point", "coordinates": [2.34070639546358, 48.8759309915503]}, "properties": {"immeuble": "10Bis", "designation": "Rue de", "objectid": 16561, "complement": "#", "geo_point_2d": [48.8759309916, 2.34070639546], "numero": "rn35012", "denomination": "CHATEAUDUN", "y": 130609.604, "x": 600306.781, "annee": "1985", "typ": "ENSERVICE", "altitude": 33.542}},{"type": "Feature", "geometry": {"type": "Point", "coordinates": [2.327303125625088, 48.84165551968235]}, "properties": {"immeuble": "20", "designation": "Rue", "objectid": 16590, "complement": "#", "geo_point_2d": [48.8416555197, 2.32730312563], "numero": "rn53062", "denomination": "DELAMBRE", "y": 126798.179, "x": 599323.179, "annee": "1982", "typ": "ENSERVICE", "altitude": 54.406}},{"type": "Feature", "geometry": {"type": "Point", "coordinates": [2.363139246973282, 48.861153037983115]}, "properties": {"immeuble": "110", "designation": "Rue", "objectid": 16592, "complement": "Angle rue Debelleyme", "geo_point_2d": [48.861153038, 2.36313924697], "numero": "rn11004", "denomination": "VIEILLE DU TEMPLE", "y": 128966.623, "x": 601952.77, "annee": "1983", "typ": "ENSERVICE", "altitude": 36.804}},{"type": "Feature", "geometry": {"type": "Point", "coordinates": [2.327583862472861, 48.857293334951144]}, "properties": {"immeuble": "32", "designation": "Rue du", "objectid": 16601, "complement": "#", "geo_point_2d": [48.857293335, 2.32758386247], "numero": "rn25034", "denomination": "BAC", "y": 128537.113, "x": 599344.002, "annee": "1981", "typ": "ENSERVICE", "altitude": 33.009}},{"type": "Feature", "geometry": {"type": "Point", "coordinates": [2.320728658107294, 48.88823296342343]}, "properties": {"immeuble": "79", "designation": "Rue", "objectid": 16606, "complement": "#", "geo_point_2d": [48.8882329634, 2.32072865811], "numero": "rn67170", "denomination": "LEMERCIER", "y": 131977.703, "x": 598841.736, "annee": "1993", "typ": "ENSERVICE", "altitude": 47.919}},{"type": "Feature", "geometry": {"type": "Point", "coordinates": [2.404236565976343, 48.8511646389404]}, "properties": {"immeuble": "68", "designation": "Rue des", "objectid": 16618, "complement": "Face \u00e0 la rue Tolain", "geo_point_2d": [48.8511646389, 2.40423656598], "numero": "rn80055", "denomination": "GRANDS CHAMPS", "y": 127857.795, "x": 604969.089, "annee": "1988", "typ": "ENSERVICE", "altitude": 54.584}},{"type": "Feature", "geometry": {"type": "Point", "coordinates": [2.380052254255983, 48.891757565782726]}, "properties": {"immeuble": "61", "designation": "Rue de l'", "objectid": 16619, "complement": "#", "geo_point_2d": [48.8917575658, 2.38005225426], "numero": "rn73003", "denomination": "OURCQ", "y": 132370.446, "x": 603191.742, "annee": "1987", "typ": "ENSERVICE", "altitude": 51.027}},{"type": "Feature", "geometry": {"type": "Point", "coordinates": [2.346845975354976, 48.89197445753663]}, "properties": {"immeuble": "97", "designation": "Rue", "objectid": 16630, "complement": "Face \u00e0 la rue Baudelique", "geo_point_2d": [48.8919744575, 2.34684597535], "numero": "rn70242", "denomination": "ORDENER", "y": 132393.692, "x": 600756.878, "annee": "1988", "typ": "ENSERVICE", "altitude": 56.459}},{"type": "Feature", "geometry": {"type": "Point", "coordinates": [2.281208890700619, 48.873995216472714]}, "properties": {"immeuble": "3", "designation": "Rue", "objectid": 16640, "complement": "#", "geo_point_2d": [48.8739952165, 2.2812088907], "numero": "rn63091", "denomination": "MARBEAU", "y": 130395.826, "x": 595942.562, "annee": "1994", "typ": "ENSERVICE", "altitude": 42.699}},{"type": "Feature", "geometry": {"type": "Point", "coordinates": [2.386247779962981, 48.86214747931505]}, "properties": {"immeuble": "12", "designation": "Rue", "objectid": 16677, "complement": "#", "geo_point_2d": [48.8621474793, 2.38624777996], "numero": "rn43175", "denomination": "RENE VILLERME", "y": 129078.066, "x": 603648.181, "annee": "1985", "typ": "ENSERVICE", "altitude": 54.052}},{"type": "Feature", "geometry": {"type": "Point", "coordinates": [2.351564746590073, 48.86300610617746]}, "properties": {"immeuble": "100", "designation": "Rue", "objectid": 16770, "complement": "#", "geo_point_2d": [48.8630061062, 2.35156474659], "numero": "rn12010", "denomination": "QUINCAMPOIX", "y": 129172.45, "x": 601103.504, "annee": "1983", "typ": "ENSERVICE", "altitude": 34.883}},{"type": "Feature", "geometry": {"type": "Point", "coordinates": [2.371468883249897, 48.82633096936665]}, "properties": {"immeuble": "62", "designation": "Rue", "objectid": 16833, "complement": "#", "geo_point_2d": [48.8263309694, 2.37146888325], "numero": "rn50079", "denomination": "ALBERT", "y": 125094.633, "x": 602565.689, "annee": "1995", "typ": "ENSERVICE", "altitude": 56.732}},{"type": "Feature", "geometry": {"type": "Point", "coordinates": [2.3723945968905022, 48.82398453843793]}, "properties": {"immeuble": "8", "designation": "Rue des", "objectid": 16863, "complement": "#", "geo_point_2d": [48.8239845384, 2.37239459689], "numero": "rn50076", "denomination": "TERRES AU CURE", "y": 124833.74, "x": 602633.779, "annee": "1995", "typ": "ENSERVICE", "altitude": 58.085}},{"type": "Feature", "geometry": {"type": "Point", "coordinates": [2.340630212707801, 48.888840287167966]}, "properties": {"immeuble": "17", "designation": "Rue", "objectid": 16889, "complement": "Face \u00e0 la rue Gaston Coute", "geo_point_2d": [48.8888402872, 2.34063021271], "numero": "rn70528", "denomination": "PAUL FEVAL", "y": 132045.126, "x": 600301.124, "annee": "1988", "typ": "ENSERVICE", "altitude": 97.644}},{"type": "Feature", "geometry": {"type": "Point", "coordinates": [2.392474982847301, 48.88101520784434]}, "properties": {"immeuble": "8", "designation": "Villa", "objectid": 16892, "complement": "Sur le pilastre du mur de cl\u00f4ture", "geo_point_2d": [48.8810152078, 2.39247498285], "numero": "rn75334", "denomination": "AMALIA", "y": 131176.491, "x": 604103.521, "annee": "2014", "typ": "ENSERVICE", "altitude": 90.571}},{"type": "Feature", "geometry": {"type": "Point", "coordinates": [2.30697142738629, 48.89023829804185]}, "properties": {"immeuble": "#", "designation": "Rue de la", "objectid": 16899, "complement": "Sur l'\u00e9glise Notre-Dame de la Confiance", "geo_point_2d": [48.890238298, 2.30697142739], "numero": "rn67206", "denomination": "CRECHE", "y": 132201.0, "x": 597833.0, "annee": "1995", "typ": "ENSERVICE", "altitude": 37.411}},{"type": "Feature", "geometry": {"type": "Point", "coordinates": [2.273515637191423, 48.86536237834783]}, "properties": {"immeuble": "116", "designation": "Rue de la", "objectid": 16902, "complement": "#", "geo_point_2d": [48.8653623783, 2.27351563719], "numero": "rn63114", "denomination": "FAISANDERIE", "y": 129436.294, "x": 595377.443, "annee": "1994", "typ": "ENSERVICE", "altitude": 51.112}},{"type": "Feature", "geometry": {"type": "Point", "coordinates": [2.334047515638658, 48.898395110662165]}, "properties": {"immeuble": "8", "designation": "Rue", "objectid": 16925, "complement": "Sur le pan coup\u00e9", "geo_point_2d": [48.8983951107, 2.33404751564], "numero": "rn69225", "denomination": "ARTHUR RANC", "y": 133107.623, "x": 599818.459, "annee": "1988", "typ": "ENSERVICE", "altitude": 49.441}},{"type": "Feature", "geometry": {"type": "Point", "coordinates": [2.326993274394766, 48.827553713138634]}, "properties": {"immeuble": "81", "designation": "Avenue du", "objectid": 16970, "complement": "#", "geo_point_2d": [48.8275537131, 2.32699327439], "numero": "rn55114", "denomination": "GENERAL LECLERC", "y": 125230.05, "x": 599300.228, "annee": "1982", "typ": "ENSERVICE", "altitude": 66.563}},{"type": "Feature", "geometry": {"type": "Point", "coordinates": [2.279577538017192, 48.85925637167048]}, "properties": {"immeuble": "25", "designation": "Rue", "objectid": 16976, "complement": "#", "geo_point_2d": [48.8592563717, 2.27957753802], "numero": "rn62153", "denomination": "NICOLO", "y": 128756.947, "x": 595821.652, "annee": "1994", "typ": "ENSERVICE", "altitude": 58.37}},{"type": "Feature", "geometry": {"type": "Point", "coordinates": [2.351042011077745, 48.859145271890306]}, "properties": {"immeuble": "#", "designation": "Rue du", "objectid": 16983, "complement": "Sur l'\u00e9glise Saint-Merri", "geo_point_2d": [48.8591452719, 2.35104201108], "numero": "rn13015", "denomination": "CLOITRE SAINT-MERRI", "y": 128743.115, "x": 601065.232, "annee": "1995", "typ": "ENSERVICE", "altitude": 37.58}},{"type": "Feature", "geometry": {"type": "Point", "coordinates": [2.359680470999349, 48.87063412871802]}, "properties": {"immeuble": "2", "designation": "Rue", "objectid": 17015, "complement": "#", "geo_point_2d": [48.8706341287, 2.359680471], "numero": "rn39086", "denomination": "LUCIEN SAMPAIX", "y": 130020.843, "x": 601698.681, "annee": "1986", "typ": "ENSERVICE", "altitude": 34.063}},{"type": "Feature", "geometry": {"type": "Point", "coordinates": [2.32767865410124, 48.88482650751005]}, "properties": {"immeuble": "8", "designation": "Passage", "objectid": 17025, "complement": "#", "geo_point_2d": [48.8848265075, 2.3276786541], "numero": "rn69119", "denomination": "LATHUILLE", "y": 131598.82, "x": 599351.336, "annee": "1988", "typ": "ENSERVICE", "altitude": 63.202}},{"type": "Feature", "geometry": {"type": "Point", "coordinates": [2.3519123509822393, 48.84940324333154]}, "properties": {"immeuble": "31", "designation": "Boulevard", "objectid": 17037, "complement": "#", "geo_point_2d": [48.8494032433, 2.35191235098], "numero": "rn17003", "denomination": "SAINT-GERMAIN", "y": 127659.807, "x": 601129.306, "annee": "1980", "typ": "ENSERVICE", "altitude": 34.371}},{"type": "Feature", "geometry": {"type": "Point", "coordinates": [2.3941533127266093, 48.835967975916674]}, "properties": {"immeuble": "66", "designation": "Rue des", "objectid": 17060, "complement": "A l'angle de la rue Nicola\u00ef", "geo_point_2d": [48.8359679759, 2.39415331273], "numero": "rn46057", "denomination": "MEUNIERS", "y": 126167.3, "x": 604230.408, "annee": "1984", "typ": "ENSERVICE", "altitude": 37.235}},{"type": "Feature", "geometry": {"type": "Point", "coordinates": [2.3466157661251392, 48.88625903588996]}, "properties": {"immeuble": "8", "designation": "Rue", "objectid": 17071, "complement": "#", "geo_point_2d": [48.8862590359, 2.34661576613], "numero": "rn70404", "denomination": "FEUTRIER", "y": 131758.131, "x": 600740.079, "annee": "1988", "typ": "ENSERVICE", "altitude": 77.496}},{"type": "Feature", "geometry": {"type": "Point", "coordinates": [2.320895927038031, 48.83762446637752]}, "properties": {"immeuble": "18", "designation": "Rue", "objectid": 17155, "complement": "Sur l'\u00e9cole", "geo_point_2d": [48.8376244664, 2.32089592704], "numero": "rn56196", "denomination": "JEAN ZAY", "y": 126350.0, "x": 598852.8, "annee": "1995", "typ": "ENSERVICE", "altitude": 63.435}},{"type": "Feature", "geometry": {"type": "Point", "coordinates": [2.30488567296897, 48.88213510829138]}, "properties": {"immeuble": "46", "designation": "Rue de", "objectid": 17160, "complement": "#", "geo_point_2d": [48.8821351083, 2.30488567297], "numero": "rn66077", "denomination": "PRONY", "y": 131299.982, "x": 597679.673, "annee": "1993", "typ": "ENSERVICE", "altitude": 41.063}},{"type": "Feature", "geometry": {"type": "Point", "coordinates": [2.394292776778637, 48.875974431187274]}, "properties": {"immeuble": "7", "designation": "Rue", "objectid": 17192, "complement": "#", "geo_point_2d": [48.8759744312, 2.39429277678], "numero": "rn75090", "denomination": "AUGUSTIN THIERRY", "y": 130616.054, "x": 604237.266, "annee": "1992", "typ": "ENSERVICE", "altitude": 111.361}},{"type": "Feature", "geometry": {"type": "Point", "coordinates": [2.315678444541537, 48.877826113501754]}, "properties": {"immeuble": "84", "designation": "Rue de", "objectid": 17214, "complement": "Angle rue de Lisbonne", "geo_point_2d": [48.8778261135, 2.31567844454], "numero": "rn32043", "denomination": "MIROMESNIL", "y": 130820.544, "x": 598471.074, "annee": "1983", "typ": "ENSERVICE", "altitude": 40.441}},{"type": "Feature", "geometry": {"type": "Point", "coordinates": [2.328990280760499, 48.89651997589039]}, "properties": {"immeuble": "3", "designation": "Impasse", "objectid": 17239, "complement": "pr\u00e9s de l'avenue de Saint-Ouen", "geo_point_2d": [48.8965199759, 2.32899028076], "numero": "rn69002", "denomination": "MILORD", "y": 132899.131, "x": 599447.663, "annee": "1988", "typ": "ENSERVICE", "altitude": 47.295}},{"type": "Feature", "geometry": {"type": "Point", "coordinates": [2.409092485172631, 48.86042765058981]}, "properties": {"immeuble": "173", "designation": "Boulevard", "objectid": 17243, "complement": "Angle rue Vitruve", "geo_point_2d": [48.8604276506, 2.40909248517], "numero": "rn80105", "denomination": "DAVOUT", "y": 128888.179, "x": 605324.457, "annee": "1995", "typ": "ENSERVICE", "altitude": 71.06}},{"type": "Feature", "geometry": {"type": "Point", "coordinates": [2.336919259042812, 48.85469713051554]}, "properties": {"immeuble": "55", "designation": "Rue de", "objectid": 17271, "complement": "#", "geo_point_2d": [48.8546971305, 2.33691925904], "numero": "rn21003", "denomination": "SEINE", "y": 128248.375, "x": 600028.997, "annee": "1981", "typ": "ENSERVICE", "altitude": 32.76}},{"type": "Feature", "geometry": {"type": "Point", "coordinates": [2.311263475698866, 48.8600049839578]}, "properties": {"immeuble": "30", "designation": "Rue", "objectid": 17283, "complement": "A l'angle de la rue Saint-Dominique", "geo_point_2d": [48.860004984, 2.3112634757], "numero": "rn26055", "denomination": "FABERT", "y": 128838.921, "x": 598146.578, "annee": "1983", "typ": "ENSERVICE", "altitude": 32.837}},{"type": "Feature", "geometry": {"type": "Point", "coordinates": [2.343233396742342, 48.8347026679301]}, "properties": {"immeuble": "65", "designation": "Boulevard", "objectid": 17289, "complement": "#", "geo_point_2d": [48.8347026679, 2.34323339674], "numero": "rn52003", "denomination": "ARAGO", "y": 126024.998, "x": 600492.512, "annee": "1982", "typ": "ENSERVICE", "altitude": 46.46}},{"type": "Feature", "geometry": {"type": "Point", "coordinates": [2.327285223917413, 48.84710275710483]}, "properties": {"immeuble": "63", "designation": "Rue de", "objectid": 17320, "complement": "Angle rue de Rennes", "geo_point_2d": [48.8471027571, 2.32728522392], "numero": "rn23029", "denomination": "VAUGIRARD", "y": 127403.916, "x": 599321.943, "annee": "1982", "typ": "ENSERVICE", "altitude": 40.909}},{"type": "Feature", "geometry": {"type": "Point", "coordinates": [2.380616444395182, 48.86239200662831]}, "properties": {"immeuble": "#", "designation": "Passage", "objectid": 17328, "complement": "Face au n\u00b04_ Voie priv\u00e9e ferm\u00e9e", "geo_point_2d": [48.8623920066, 2.3806164444], "numero": "rn42153", "denomination": "DUDOUY", "y": 129105.0, "x": 603235.0, "annee": "1985", "typ": "ENSERVICE", "altitude": 46.418}},{"type": "Feature", "geometry": {"type": "Point", "coordinates": [2.383071216985464, 48.87685028473407]}, "properties": {"immeuble": "42", "designation": "Rue", "objectid": 17346, "complement": "A l'angle des n\u00b049 et 51 rue Fessart_Sur le pan coup\u00e9", "geo_point_2d": [48.8768502847, 2.38307121699], "numero": "rn76244", "denomination": "PRADIER", "y": 130712.879, "x": 603414.121, "annee": "1992", "typ": "ENSERVICE", "altitude": 96.171}},{"type": "Feature", "geometry": {"type": "Point", "coordinates": [2.378131714623071, 48.84916556134896]}, "properties": {"immeuble": "#", "designation": "Place d'", "objectid": 17379, "complement": "Face au n\u00b07_ Sur le March\u00e9 Couvert", "geo_point_2d": [48.8491655613, 2.37813171462], "numero": "rn48078", "denomination": "ALIGRE", "y": 127634.106, "x": 603053.501, "annee": "1984", "typ": "ENSERVICE", "altitude": 35.715}},{"type": "Feature", "geometry": {"type": "Point", "coordinates": [2.351965133066499, 48.87630539330388]}, "properties": {"immeuble": "4", "designation": "Cit\u00e9 d'", "objectid": 17397, "complement": "#", "geo_point_2d": [48.8763053933, 2.35196513307], "numero": "rn38036", "denomination": "HAUTEVILLE", "y": 130651.346, "x": 601132.586, "annee": "1986", "typ": "ENSERVICE", "altitude": 41.933}},{"type": "Feature", "geometry": {"type": "Point", "coordinates": [2.291842029664966, 48.87990437098008]}, "properties": {"immeuble": "6", "designation": "Rue", "objectid": 17436, "complement": "#", "geo_point_2d": [48.879904371, 2.29184202966], "numero": "rn65043", "denomination": "PIERRE DEMOURS", "y": 131052.408, "x": 596722.911, "annee": "1993", "typ": "ENSERVICE", "altitude": 35.044}},{"type": "Feature", "geometry": {"type": "Point", "coordinates": [2.374693789306511, 48.863580313904414]}, "properties": {"immeuble": "18", "designation": "Passage", "objectid": 17439, "complement": "Face \u00e0 la rue Neuve Popincourt", "geo_point_2d": [48.8635803139, 2.37469378931], "numero": "rn42137", "denomination": "BESLAY", "y": 129236.903, "x": 602800.397, "annee": "1985", "typ": "ENSERVICE", "altitude": 41.397}},{"type": "Feature", "geometry": {"type": "Point", "coordinates": [2.38462751097672, 48.88070861703533]}, "properties": {"immeuble": "#", "designation": "#", "objectid": 17484, "complement": "Sur le chemin joignant la route Circulaire du Lac \u00e0 l'avenue de la Cascade_A 5 m\u00e8tres du cand\u00e9labre XIX-5530_Sur le rocher", "geo_point_2d": [48.880708617, 2.38462751098], "numero": "rn76192", "denomination": "PARC DES BUTTES CHAUMONT", "y": 131142.0, "x": 603528.0, "annee": "1992", "typ": "ENSERVICE", "altitude": 66.544}},{"type": "Feature", "geometry": {"type": "Point", "coordinates": [2.408919400545933, 48.83484666773784]}, "properties": {"immeuble": "293", "designation": "Avenue", "objectid": 17526, "complement": "Sur l'entr\u00e9e du mus\u00e9e des Arts Africains et Oc\u00e9aniens", "geo_point_2d": [48.8348466677, 2.40891940055], "numero": "rn45151", "denomination": "DAUMESNIL", "y": 126043.544, "x": 605314.471, "annee": "1996", "typ": "ENSERVICE", "altitude": 46.39}},{"type": "Feature", "geometry": {"type": "Point", "coordinates": [2.404165571797518, 48.87716111534945]}, "properties": {"immeuble": "65", "designation": "Rue de", "objectid": 17568, "complement": "Pr\u00e8s de la clinique", "geo_point_2d": [48.8771611153, 2.4041655718], "numero": "rn75274", "denomination": "ROMAINVILLE", "y": 130748.616, "x": 604961.304, "annee": "1992", "typ": "ENSERVICE", "altitude": 113.859}},{"type": "Feature", "geometry": {"type": "Point", "coordinates": [2.399177279790498, 48.88183464246298]}, "properties": {"immeuble": "#", "designation": "#", "objectid": 17573, "complement": "Sur le d\u00e9 de la rambarde Surplombant l'entr\u00e9e principale boulevard d'Alg\u00e9rie \u00e0 20 m\u00e8tres du cand\u00e9labre XIX-2025", "geo_point_2d": [48.8818346425, 2.39917727979], "numero": "rn75401", "denomination": "SQUARE DE LA BUTTE DU CHAPEAU ROUGE", "y": 131268.0, "x": 604595.0, "annee": "1992", "typ": "ENSERVICE", "altitude": 95.844}},{"type": "Feature", "geometry": {"type": "Point", "coordinates": [2.335864253447646, 48.83394960832227]}, "properties": {"immeuble": "4", "designation": "Rue", "objectid": 17578, "complement": "#", "geo_point_2d": [48.8339496083, 2.33586425345], "numero": "rn53021", "denomination": "LECLERC", "y": 125941.235, "x": 599951.546, "annee": "1982", "typ": "ENSERVICE", "altitude": 57.915}},{"type": "Feature", "geometry": {"type": "Point", "coordinates": [2.367328196477683, 48.82262602200312]}, "properties": {"immeuble": "#", "designation": "Avenue d'", "objectid": 17592, "complement": "Angle rue Regnault sur le pont SNCF", "geo_point_2d": [48.822626022, 2.36732819648], "numero": "rn50042", "denomination": "IVRY", "y": 124682.507, "x": 602261.838, "annee": "1982", "typ": "ENSERVICE", "altitude": 58.86}},{"type": "Feature", "geometry": {"type": "Point", "coordinates": [2.39859992149513, 48.87826267625098]}, "properties": {"immeuble": "24", "designation": "Rue des", "objectid": 17620, "complement": "Angle impasse P\u00e9tin_ Sur le pan coup\u00e9", "geo_point_2d": [48.8782626763, 2.3985999215], "numero": "rn75261", "denomination": "BOIS", "y": 130870.76, "x": 604552.981, "annee": "1992", "typ": "ENSERVICE", "altitude": 109.562}},{"type": "Feature", "geometry": {"type": "Point", "coordinates": [2.340166436924988, 48.889385191587145]}, "properties": {"immeuble": "32", "designation": "Rue des", "objectid": 17641, "complement": "Pr\u00e8s de la rue Lamarck", "geo_point_2d": [48.8893851916, 2.34016643692], "numero": "rn70333", "denomination": "SAULES", "y": 132105.718, "x": 600267.113, "annee": "1988", "typ": "ENSERVICE", "altitude": 87.32}},{"type": "Feature", "geometry": {"type": "Point", "coordinates": [2.322551400634028, 48.882333873709506]}, "properties": {"immeuble": "37", "designation": "Boulevard des", "objectid": 17647, "complement": "#", "geo_point_2d": [48.8823338737, 2.32255140063], "numero": "rn32002", "denomination": "BATIGNOLLES", "y": 131321.694, "x": 598975.273, "annee": "1978", "typ": "ENSERVICE", "altitude": 54.316}},{"type": "Feature", "geometry": {"type": "Point", "coordinates": [2.349399815387642, 48.89035209359332]}, "properties": {"immeuble": "67", "designation": "Boulevard", "objectid": 17677, "complement": "#", "geo_point_2d": [48.8903520936, 2.34939981539], "numero": "rn70544", "denomination": "BARBES", "y": 132213.313, "x": 600944.168, "annee": "1988", "typ": "ENSERVICE", "altitude": 58.148}},{"type": "Feature", "geometry": {"type": "Point", "coordinates": [2.355315235470636, 48.84266882075064]}, "properties": {"immeuble": "49", "designation": "Rue", "objectid": 17679, "complement": "#", "geo_point_2d": [48.8426688208, 2.35531523547], "numero": "rn18056", "denomination": "GEOFFROY-SAINT-HILAIRE", "y": 126910.991, "x": 601379.218, "annee": "1981", "typ": "ENSERVICE", "altitude": 39.689}},{"type": "Feature", "geometry": {"type": "Point", "coordinates": [2.369235585075547, 48.89248077239341]}, "properties": {"immeuble": "#", "designation": "Rue d'", "objectid": 17714, "complement": "Face au n\u00b0138_sur le mur de cl\u00f4ture SNCF", "geo_point_2d": [48.8924807724, 2.36923558508], "numero": "rn72089", "denomination": "AUBERVILLIERS", "y": 132450.465, "x": 602398.572, "annee": "1988", "typ": "ENSERVICE", "altitude": 49.683}},{"type": "Feature", "geometry": {"type": "Point", "coordinates": [2.340600714840107, 48.87545179953803]}, "properties": {"immeuble": "55", "designation": "Rue du", "objectid": 17728, "complement": "#", "geo_point_2d": [48.8754517995, 2.34060071484], "numero": "rn35073", "denomination": "FAUBOURG MONTMARTRE", "y": 130556.317, "x": 600299.032, "annee": "1985", "typ": "ENSERVICE", "altitude": 32.96}},{"type": "Feature", "geometry": {"type": "Point", "coordinates": [2.381151005979631, 48.88113269009109]}, "properties": {"immeuble": "#", "designation": "#", "objectid": 17779, "complement": "Sur la cul\u00e9e Ouest de la passerelle suspendue menant au belv\u00e9d\u00e8re Pr\u00e8s du pavillon du lac", "geo_point_2d": [48.8811326901, 2.38115100598], "numero": "rn76212", "denomination": "PARC DES BUTTES CHAUMONT", "y": 131189.0, "x": 603273.0, "annee": "1992", "typ": "ENSERVICE", "altitude": 68.706}},{"type": "Feature", "geometry": {"type": "Point", "coordinates": [2.344569261976955, 48.82234911742833]}, "properties": {"immeuble": "53", "designation": "Rue", "objectid": 17788, "complement": "#", "geo_point_2d": [48.8223491174, 2.34456926198], "numero": "rn51092", "denomination": "BRILLAT-SAVARIN", "y": 124651.283, "x": 600590.715, "annee": "1982", "typ": "ENSERVICE", "altitude": 45.772}},{"type": "Feature", "geometry": {"type": "Point", "coordinates": [2.339108249753945, 48.89497598829788]}, "properties": {"immeuble": "#", "designation": "Impasse", "objectid": 17838, "complement": "Sur l\u001a\u00e9cole face au n\u00b05Bis", "geo_point_2d": [48.8949759883, 2.33910824975], "numero": "rn69340", "denomination": "ROBERT", "y": 132727.415, "x": 600189.5, "annee": "1988", "typ": "ENSERVICE", "altitude": 54.243}},{"type": "Feature", "geometry": {"type": "Point", "coordinates": [2.292183706471352, 48.85208476597643]}, "properties": {"immeuble": "27", "designation": "Rue", "objectid": 17841, "complement": "Pr\u00e8s du n\u00b029_ Sous le passage sous vo\u00fbte", "geo_point_2d": [48.852084766, 2.29218370647], "numero": "rn59114", "denomination": "DESAIX", "y": 127958.835, "x": 596746.132, "annee": "1996", "typ": "ENSERVICE", "altitude": 31.589}},{"type": "Feature", "geometry": {"type": "Point", "coordinates": [2.380081208987991, 48.868790922240656]}, "properties": {"immeuble": "99", "designation": "Rue", "objectid": 17842, "complement": "#", "geo_point_2d": [48.8687909222, 2.38008120899], "numero": "rn41056", "denomination": "JEAN-PIERRE TIMBAUD", "y": 129816.541, "x": 603195.324, "annee": "1982", "typ": "ENSERVICE", "altitude": 53.729}},{"type": "Feature", "geometry": {"type": "Point", "coordinates": [2.266755275980754, 48.83603128082965]}, "properties": {"immeuble": "#", "designation": "Quai d'", "objectid": 17855, "complement": "Face \u00e0 la rue P\u00e9goud", "geo_point_2d": [48.8360312808, 2.26675527598], "numero": "rn60052", "denomination": "ISSY LES MOULINEAUX", "y": 126175.097, "x": 594878.437, "annee": "1984", "typ": "ENSERVICE", "altitude": 31.294}},{"type": "Feature", "geometry": {"type": "Point", "coordinates": [2.327860383760274, 48.85840396004587]}, "properties": {"immeuble": "46", "designation": "Rue de", "objectid": 17884, "complement": "#", "geo_point_2d": [48.85840396, 2.32786038376], "numero": "rn25036", "denomination": "VERNEUIL", "y": 128660.613, "x": 599364.307, "annee": "1981", "typ": "ENSERVICE", "altitude": 32.711}},{"type": "Feature", "geometry": {"type": "Point", "coordinates": [2.336391551734244, 48.83929715367196]}, "properties": {"immeuble": "24", "designation": "Avenue de l'", "objectid": 17922, "complement": "#", "geo_point_2d": [48.8392971537, 2.33639155173], "numero": "rn53091", "denomination": "OBSERVATOIRE", "y": 126535.886, "x": 599990.26, "annee": "1982", "typ": "ENSERVICE", "altitude": 57.567}},{"type": "Feature", "geometry": {"type": "Point", "coordinates": [2.375650456432352, 48.86064454001681]}, "properties": {"immeuble": "73", "designation": "Boulevard", "objectid": 17934, "complement": "Face \u00e0 l'impasse Truillot_ Pr\u00e8s de la rue Lacharri\u00e8re", "geo_point_2d": [48.86064454, 2.37565045643], "numero": "rn42034", "denomination": "VOLTAIRE", "y": 128910.479, "x": 602870.752, "annee": "1982", "typ": "ENSERVICE", "altitude": 37.029}},{"type": "Feature", "geometry": {"type": "Point", "coordinates": [2.3396812897042762, 48.862979829867584]}, "properties": {"immeuble": "2", "designation": "Rue du", "objectid": 17950, "complement": "Angle droit de la galerie V\u00e9rot-Dodat_", "geo_point_2d": [48.8629798299, 2.3396812897], "numero": "rn02021", "denomination": "BOULOI", "y": 129169.422, "x": 600231.642, "annee": "1982", "typ": "ENSERVICE", "altitude": 35.249}},{"type": "Feature", "geometry": {"type": "Point", "coordinates": [2.377897456274188, 48.87376207309859]}, "properties": {"immeuble": "20", "designation": "Rue", "objectid": 17956, "complement": "Sur le pilier entre les deux sorties du parking souterrain", "geo_point_2d": [48.8737620731, 2.37789745627], "numero": "rn76281", "denomination": "JULES ROMAINS", "y": 130369.246, "x": 603034.826, "annee": "1992", "typ": "ENSERVICE", "altitude": 62.096}},{"type": "Feature", "geometry": {"type": "Point", "coordinates": [2.437158722355854, 48.84089388844943]}, "properties": {"immeuble": "#", "designation": "Esplanade", "objectid": 17962, "complement": "Sur le mur d'enceinte du ch\u00e2teau de Vincennes_ C\u00f4t\u00e9 cours des Mar\u00e9chaux", "geo_point_2d": [48.8408938884, 2.43715872236], "numero": "rn45191", "denomination": "SAINT-LOUIS", "y": 126718.375, "x": 607386.608, "annee": "1996", "typ": "ENSERVICE", "altitude": 53.257}},{"type": "Feature", "geometry": {"type": "Point", "coordinates": [2.298510323500383, 48.86044382609483]}, "properties": {"immeuble": "207", "designation": "Rue de l'", "objectid": 17977, "complement": "A l'angle de l'avenue Franco-Russe", "geo_point_2d": [48.8604438261, 2.2985103235], "numero": "rn28026", "denomination": "UNIVERSITE", "y": 128888.113, "x": 597210.877, "annee": "1983", "typ": "ENSERVICE", "altitude": 31.606}},{"type": "Feature", "geometry": {"type": "Point", "coordinates": [2.332201047161133, 48.88651002824893]}, "properties": {"immeuble": "#", "designation": "#", "objectid": 17984, "complement": "Sur la rampe Caulaincourt_ Au bas des escaliers Sur la cul\u00e9e nord-est du pont Caulaincourt", "geo_point_2d": [48.8865100282, 2.33220104716], "numero": "rn69441", "denomination": "CIMETIERE DE MONTMARTRE", "y": 131786.0, "x": 599683.0, "annee": "1988", "typ": "ENSERVICE", "altitude": 65.713}},{"type": "Feature", "geometry": {"type": "Point", "coordinates": [2.33294841354717, 48.88238716559574]}, "properties": {"immeuble": "27", "designation": "Rue de", "objectid": 17991, "complement": "#", "geo_point_2d": [48.8823871656, 2.33294841355], "numero": "rn33084", "denomination": "DOUAI", "y": 131327.532, "x": 599737.782, "annee": "1985", "typ": "ENSERVICE", "altitude": 57.088}},{"type": "Feature", "geometry": {"type": "Point", "coordinates": [2.331678913861202, 48.84748123415878]}, "properties": {"immeuble": "61", "designation": "Rue", "objectid": 17999, "complement": "#", "geo_point_2d": [48.8474812342, 2.33167891386], "numero": "rn22056", "denomination": "MADAME", "y": 127445.973, "x": 599644.404, "annee": "1982", "typ": "ENSERVICE", "altitude": 40.419}},{"type": "Feature", "geometry": {"type": "Point", "coordinates": [2.283334515244758, 48.87323044255242]}, "properties": {"immeuble": "1", "designation": "Rue", "objectid": 18009, "complement": "A l'angle de l'avenue Foch", "geo_point_2d": [48.8732304426, 2.28333451524], "numero": "rn63047", "denomination": "LAURENT-PICHAT", "y": 130310.67, "x": 596098.419, "annee": "1994", "typ": "ENSERVICE", "altitude": 46.285}},{"type": "Feature", "geometry": {"type": "Point", "coordinates": [2.40716322796966, 48.85157878502832]}, "properties": {"immeuble": "50", "designation": "Rue des", "objectid": 18012, "complement": "Angle rue des Grands Champs sur le pan coup\u00e9", "geo_point_2d": [48.851578785, 2.40716322797], "numero": "rn80245", "denomination": "MARAICHERS", "y": 127904.045, "x": 605183.82, "annee": "1988", "typ": "ENSERVICE", "altitude": 53.473}},{"type": "Feature", "geometry": {"type": "Point", "coordinates": [2.331577281809423, 48.871089648497474]}, "properties": {"immeuble": "1", "designation": "Rue", "objectid": 18027, "complement": "#", "geo_point_2d": [48.8710896485, 2.33157728181], "numero": "rn34048", "denomination": "AUBER", "y": 130071.246, "x": 599637.134, "annee": "1985", "typ": "ENSERVICE", "altitude": 36.021}},{"type": "Feature", "geometry": {"type": "Point", "coordinates": [2.42158955037841, 48.82395504029702]}, "properties": {"immeuble": "43", "designation": "Rue", "objectid": 18029, "complement": "94-SAINT-MAURICE_ Pr\u00e8s de l'avenue de Gravelle", "geo_point_2d": [48.8239550403, 2.42158955038], "numero": "rn94279", "denomination": "ADRIEN DAMALIX", "y": 124833.358, "x": 606245.938, "annee": "1996", "typ": "ENSERVICE", "altitude": 53.433}},{"type": "Feature", "geometry": {"type": "Point", "coordinates": [2.336342484151473, 48.87602566575612]}, "properties": {"immeuble": "37", "designation": "Rue de", "objectid": 18039, "complement": "#", "geo_point_2d": [48.8760256658, 2.33634248415], "numero": "rn34094", "denomination": "CHATEAUDUN", "y": 130620.123, "x": 599986.694, "annee": "1985", "typ": "ENSERVICE", "altitude": 32.913}},{"type": "Feature", "geometry": {"type": "Point", "coordinates": [2.394211294207983, 48.89543012121904]}, "properties": {"immeuble": "#", "designation": "Boulevard", "objectid": 18052, "complement": "Sur le pont_Sur le canal de l'Ourcq_A 4 m\u00e8tre du cand\u00e9labre XIX-1098", "geo_point_2d": [48.8954301212, 2.39421129421], "numero": "rn74212", "denomination": "SERURIER", "y": 132779.535, "x": 604229.648, "annee": "1983", "typ": "ENSERVICE", "altitude": 59.53}},{"type": "Feature", "geometry": {"type": "Point", "coordinates": [2.347104103062994, 48.879641181534005]}, "properties": {"immeuble": "20", "designation": "Rue", "objectid": 18062, "complement": "#", "geo_point_2d": [48.8796411815, 2.34710410306], "numero": "rn36024", "denomination": "CONDORCET", "y": 131022.226, "x": 600775.989, "annee": "1985", "typ": "ENSERVICE", "altitude": 52.854}},{"type": "Feature", "geometry": {"type": "Point", "coordinates": [2.400762902752433, 48.88582774229668]}, "properties": {"immeuble": "34", "designation": "Rue", "objectid": 18086, "complement": "93-LE PRE SAINT-GERVAIS_ Pr\u00e8s de la rue Delt\u00e9ral", "geo_point_2d": [48.8858277423, 2.40076290275], "numero": "rn93456", "denomination": "HONORE D'ESTIENNE D'ORVES", "y": 131712.133, "x": 604710.914, "annee": "1992", "typ": "ENSERVICE", "altitude": 62.278}},{"type": "Feature", "geometry": {"type": "Point", "coordinates": [2.3314875256341763, 48.89545124141026]}, "properties": {"immeuble": "52", "designation": "Rue", "objectid": 18129, "complement": "Sur l'\u00e9cole communale", "geo_point_2d": [48.8954512414, 2.33148752563], "numero": "rn69181", "denomination": "VAUVENARGUES", "y": 132780.272, "x": 599630.748, "annee": "1988", "typ": "ENSERVICE", "altitude": 52.265}},{"type": "Feature", "geometry": {"type": "Point", "coordinates": [2.353255922886544, 48.8902834525374]}, "properties": {"immeuble": "57", "designation": "Rue", "objectid": 18168, "complement": "Angle rue Marcadet", "geo_point_2d": [48.8902834525, 2.35325592289], "numero": "rn71031", "denomination": "LEON", "y": 132205.736, "x": 601226.928, "annee": "1988", "typ": "ENSERVICE", "altitude": 52.802}},{"type": "Feature", "geometry": {"type": "Point", "coordinates": [2.341450754444357, 48.83457560281635]}, "properties": {"immeuble": "#", "designation": "Rue de la", "objectid": 18207, "complement": "Angle boulevard Arago sur la maison d'arr\u00eat de la Sant\u00e9", "geo_point_2d": [48.8345756028, 2.34145075444], "numero": "rn53012", "denomination": "SANTE", "y": 126010.858, "x": 600361.65, "annee": "1982", "typ": "ENSERVICE", "altitude": 48.883}},{"type": "Feature", "geometry": {"type": "Point", "coordinates": [2.385732794027699, 48.88158943570362]}, "properties": {"immeuble": "#", "designation": "#", "objectid": 18212, "complement": "En contrebas de l'avenue J_C_ Cave sur le rocher en bas des escaliers menant \u00e0 la passerelle SNCF d\u00e9truite_Face au cand\u00e9labre XIX-5477", "geo_point_2d": [48.8815894357, 2.38573279403], "numero": "rn76189", "denomination": "PARC DES BUTTES CHAUMONT", "y": 131240.0, "x": 603609.0, "annee": "1987", "typ": "ENSERVICE", "altitude": 66.756}},{"type": "Feature", "geometry": {"type": "Point", "coordinates": [2.404165614556424, 48.86033286947709]}, "properties": {"immeuble": "#", "designation": "Rue de", "objectid": 18231, "complement": "Angle place Saint-Blaise sur le mur de sout\u00e8nement", "geo_point_2d": [48.8603328695, 2.40416561456], "numero": "rn79115", "denomination": "BAGNOLET", "y": 128877.304, "x": 604962.974, "annee": "1995", "typ": "ENSERVICE", "altitude": 68.894}},{"type": "Feature", "geometry": {"type": "Point", "coordinates": [2.303053895984863, 48.880429003982044]}, "properties": {"immeuble": "8", "designation": "Rue", "objectid": 18261, "complement": "Pr\u00e8s de la rue L\u00e9on Jost", "geo_point_2d": [48.880429004, 2.30305389598], "numero": "rn66088", "denomination": "MEDERIC", "y": 131110.32, "x": 597545.246, "annee": "1993", "typ": "ENSERVICE", "altitude": 40.948}},{"type": "Feature", "geometry": {"type": "Point", "coordinates": [2.319478377904639, 48.8734369119787]}, "properties": {"immeuble": "8", "designation": "Rue", "objectid": 18288, "complement": "Angle rue d'Astorg", "geo_point_2d": [48.873436912, 2.3194783779], "numero": "rn31006", "denomination": "ROQUEPINE", "y": 130332.392, "x": 598749.67, "annee": "1983", "typ": "ENSERVICE", "altitude": 32.917}},{"type": "Feature", "geometry": {"type": "Point", "coordinates": [2.390241585319981, 48.85964350749163]}, "properties": {"immeuble": "29", "designation": "Rue du", "objectid": 18327, "complement": "#", "geo_point_2d": [48.8596435075, 2.39024158532], "numero": "rn79223", "denomination": "REPOS", "y": 128799.824, "x": 603941.399, "annee": "1988", "typ": "ENSERVICE", "altitude": 58.138}},{"type": "Feature", "geometry": {"type": "Point", "coordinates": [2.398187591900296, 48.86827233128743]}, "properties": {"immeuble": "83", "designation": "Rue", "objectid": 18338, "complement": "Pr\u00e8s de la rue de la Chine", "geo_point_2d": [48.8682723313, 2.3981875919], "numero": "rn79028", "denomination": "VILLIERS DE L'ISLE ADAM", "y": 129759.802, "x": 604523.64, "annee": "1988", "typ": "ENSERVICE", "altitude": 102.757}},{"type": "Feature", "geometry": {"type": "Point", "coordinates": [2.349255554843568, 48.87838419620924]}, "properties": {"immeuble": "102", "designation": "Rue du", "objectid": 18340, "complement": "#", "geo_point_2d": [48.8783841962, 2.34925555484], "numero": "rn37058", "denomination": "FAUBOURG POISSONNIERE", "y": 130882.473, "x": 600933.806, "annee": "1986", "typ": "ENSERVICE", "altitude": 44.198}},{"type": "Feature", "geometry": {"type": "Point", "coordinates": [2.407309071288739, 48.864680657320555]}, "properties": {"immeuble": "#", "designation": "Rue", "objectid": 18362, "complement": "Face au n\u00b09 angle rue Belgrand", "geo_point_2d": [48.8646806573, 2.40730907129], "numero": "rn78158", "denomination": "MARTIN GARAT", "y": 129360.992, "x": 605193.164, "annee": "1988", "typ": "ENSERVICE", "altitude": 78.593}},{"type": "Feature", "geometry": {"type": "Point", "coordinates": [2.383721793123471, 48.84753067933852]}, "properties": {"immeuble": "#", "designation": "Rue", "objectid": 18387, "complement": "Face au n\u00b026", "geo_point_2d": [48.8475306793, 2.38372179312], "numero": "rn48132", "denomination": "CHALIGNY", "y": 127452.548, "x": 603463.859, "annee": "1984", "typ": "ENSERVICE", "altitude": 37.253}},{"type": "Feature", "geometry": {"type": "Point", "coordinates": [2.333959750933696, 48.89405339892241]}, "properties": {"immeuble": "178", "designation": "Rue", "objectid": 18430, "complement": "#", "geo_point_2d": [48.8940533989, 2.33395975093], "numero": "rn69300", "denomination": "ORDENER", "y": 132624.822, "x": 599812.005, "annee": "1988", "typ": "ENSERVICE", "altitude": 57.118}},{"type": "Feature", "geometry": {"type": "Point", "coordinates": [2.37702084338442, 48.86784457329723]}, "properties": {"immeuble": "15", "designation": "Rue des", "objectid": 18432, "complement": "A l'angle de la rue Morand_ Sur le pan coup\u00e9", "geo_point_2d": [48.8678445733, 2.37702084338], "numero": "rn41146", "denomination": "TROIS COURONNES", "y": 129711.181, "x": 602970.874, "annee": "1985", "typ": "ENSERVICE", "altitude": 43.415}},{"type": "Feature", "geometry": {"type": "Point", "coordinates": [2.342702182712078, 48.856936533102775]}, "properties": {"immeuble": "27", "designation": "Quai de l'", "objectid": 18434, "complement": "#", "geo_point_2d": [48.8569365331, 2.34270218271], "numero": "rn01048", "denomination": "HORLOGE", "y": 128497.417, "x": 600453.329, "annee": "1990", "typ": "ENSERVICE", "altitude": 35.976}},{"type": "Feature", "geometry": {"type": "Point", "coordinates": [2.384486373423427, 48.85085657077556]}, "properties": {"immeuble": "10", "designation": "Rue", "objectid": 18442, "complement": "A l'angle de la rue Paul Bert", "geo_point_2d": [48.8508565708, 2.38448637342], "numero": "rn44085", "denomination": "FAIDHERBE", "y": 127822.425, "x": 603519.739, "annee": "1985", "typ": "ENSERVICE", "altitude": 37.529}},{"type": "Feature", "geometry": {"type": "Point", "coordinates": [2.38260450246527, 48.870779738404906]}, "properties": {"immeuble": "41", "designation": "Rue de", "objectid": 18515, "complement": "#", "geo_point_2d": [48.8707797384, 2.38260450247], "numero": "rn77178", "denomination": "PALI-KAO", "y": 130037.809, "x": 603380.297, "annee": "1995", "typ": "ENSERVICE", "altitude": 61.853}},{"type": "Feature", "geometry": {"type": "Point", "coordinates": [2.387980023013435, 48.88589170098143]}, "properties": {"immeuble": "67", "designation": "Rue", "objectid": 18550, "complement": "Pr\u00e8s de la rue de Luneville", "geo_point_2d": [48.885891701, 2.38798002301], "numero": "rn75146", "denomination": "PETIT", "y": 131718.525, "x": 603773.489, "annee": "1995", "typ": "ENSERVICE", "altitude": 55.878}},{"type": "Feature", "geometry": {"type": "Point", "coordinates": [2.326487582419441, 48.851992433550315]}, "properties": {"immeuble": "44", "designation": "Boulevard", "objectid": 18562, "complement": "#", "geo_point_2d": [48.8519924336, 2.32648758242], "numero": "rn25058", "denomination": "RASPAIL", "y": 127947.659, "x": 599263.479, "annee": "1981", "typ": "ENSERVICE", "altitude": 36.695}},{"type": "Feature", "geometry": {"type": "Point", "coordinates": [2.348514057454869, 48.82971672004549]}, "properties": {"immeuble": "#", "designation": "Boulevard", "objectid": 18565, "complement": "Face \u00e0 la rue Barrault sur le m\u00e9tropolitain", "geo_point_2d": [48.82971672, 2.34851405745], "numero": "rn51008", "denomination": "AUGUSTE BLANQUI", "y": 125470.605, "x": 600880.247, "annee": "1982", "typ": "ENSERVICE", "altitude": 46.102}},{"type": "Feature", "geometry": {"type": "Point", "coordinates": [2.371323297011521, 48.86127895188484]}, "properties": {"immeuble": "#", "designation": "Impasse", "objectid": 18593, "complement": "Au fond de l'impasse_ A gauche du portail", "geo_point_2d": [48.8612789519, 2.37132329701], "numero": "rn42107", "denomination": "SAINT-SEBASTIEN", "y": 128980.87, "x": 602553.231, "annee": "1985", "typ": "ENSERVICE", "altitude": 33.798}},{"type": "Feature", "geometry": {"type": "Point", "coordinates": [2.365757849577454, 48.82941104539066]}, "properties": {"immeuble": "21", "designation": "Rue", "objectid": 18596, "complement": "Pr\u00e8s du pan coup\u00e9", "geo_point_2d": [48.8294110454, 2.36575784958], "numero": "rn50227", "denomination": "LAHIRE", "y": 125436.961, "x": 602146.244, "annee": "1995", "typ": "ENSERVICE", "altitude": 47.141}},{"type": "Feature", "geometry": {"type": "Point", "coordinates": [2.330918335451607, 48.89332910534284]}, "properties": {"immeuble": "4", "designation": "Villa", "objectid": 18603, "complement": "#", "geo_point_2d": [48.8933291053, 2.33091833545], "numero": "rn69379", "denomination": "ARMAND", "y": 132544.292, "x": 599588.996, "annee": "1988", "typ": "ENSERVICE", "altitude": 52.583}},{"type": "Feature", "geometry": {"type": "Point", "coordinates": [2.325768671169026, 48.84103637073391]}, "properties": {"immeuble": "52", "designation": "Boulevard", "objectid": 18606, "complement": "#", "geo_point_2d": [48.8410363707, 2.32576867117], "numero": "rn53058", "denomination": "EDGAR QUINET", "y": 126729.344, "x": 599210.541, "annee": "1982", "typ": "ENSERVICE", "altitude": 55.932}},{"type": "Feature", "geometry": {"type": "Point", "coordinates": [2.331965883876148, 48.86553229805738]}, "properties": {"immeuble": "10", "designation": "Rue de", "objectid": 18618, "complement": "#", "geo_point_2d": [48.8655322981, 2.33196588388], "numero": "rn04024", "denomination": "LA SOURDIERE", "y": 129453.263, "x": 599665.599, "annee": "1982", "typ": "ENSERVICE", "altitude": 33.666}},{"type": "Feature", "geometry": {"type": "Point", "coordinates": [2.348760799695683, 48.88133662449275]}, "properties": {"immeuble": "61", "designation": "Rue de", "objectid": 18619, "complement": "#", "geo_point_2d": [48.8813366245, 2.3487607997], "numero": "rn36016", "denomination": "DUNKERQUE", "y": 131210.779, "x": 600897.467, "annee": "1985", "typ": "ENSERVICE", "altitude": 56.841}},{"type": "Feature", "geometry": {"type": "Point", "coordinates": [2.242868796063447, 48.85577886653988]}, "properties": {"immeuble": "#", "designation": "All\u00e9e de la", "objectid": 18625, "complement": "A 4 m\u00e8tres du lampadaire XVI-7165_ Sur une borne", "geo_point_2d": [48.8557788665, 2.24286879606], "numero": "rn61354", "denomination": "REINE MARGUERITE", "y": 128372.947, "x": 593127.735, "annee": "1996", "typ": "ENSERVICE", "altitude": 47.783}},{"type": "Feature", "geometry": {"type": "Point", "coordinates": [2.34978756450882, 48.88842262657127]}, "properties": {"immeuble": "64", "designation": "Boulevard", "objectid": 18637, "complement": "Angle rue Doudeauville", "geo_point_2d": [48.8884226266, 2.34978756451], "numero": "rn70344", "denomination": "BARBES", "y": 131998.76, "x": 600972.637, "annee": "1988", "typ": "ENSERVICE", "altitude": 64.24}},{"type": "Feature", "geometry": {"type": "Point", "coordinates": [2.285354150752064, 48.88017229347873]}, "properties": {"immeuble": "11", "designation": "Rue", "objectid": 18652, "complement": "Angle boulevard Gouvion-Saint-Cyr", "geo_point_2d": [48.8801722935, 2.28535415075], "numero": "rn65126", "denomination": "BELIDOR", "y": 131082.505, "x": 596247.093, "annee": "1993", "typ": "ENSERVICE", "altitude": 36.753}},{"type": "Feature", "geometry": {"type": "Point", "coordinates": [2.354151754121885, 48.872925680851885]}, "properties": {"immeuble": "2", "designation": "Rue des", "objectid": 18781, "complement": "#", "geo_point_2d": [48.8729256809, 2.35415175412], "numero": "rn38048", "denomination": "PETITES ECURIES", "y": 130275.555, "x": 601293.056, "annee": "1986", "typ": "ENSERVICE", "altitude": 35.7}},{"type": "Feature", "geometry": {"type": "Point", "coordinates": [2.34845530519526, 48.827566192693446]}, "properties": {"immeuble": "40", "designation": "Rue de la", "objectid": 18784, "complement": "#", "geo_point_2d": [48.8275661927, 2.3484553052], "numero": "rn51076", "denomination": "BUTTE AUX CAILLES", "y": 125231.464, "x": 600875.97, "annee": "1982", "typ": "ENSERVICE", "altitude": 60.866}},{"type": "Feature", "geometry": {"type": "Point", "coordinates": [2.335887116944171, 48.873866531898116]}, "properties": {"immeuble": "13", "designation": "Rue", "objectid": 18804, "complement": "#", "geo_point_2d": [48.8738665319, 2.33588711694], "numero": "rn34020", "denomination": "LA FAYETTE", "y": 130380.026, "x": 599953.29, "annee": "1983", "typ": "ENSERVICE", "altitude": 34.327}},{"type": "Feature", "geometry": {"type": "Point", "coordinates": [2.386946039720062, 48.840702168708596]}, "properties": {"immeuble": "3", "designation": "Passage du", "objectid": 18815, "complement": "#", "geo_point_2d": [48.8407021687, 2.38694603972], "numero": "rn47058", "denomination": "CHAROLAIS", "y": 126693.366, "x": 603700.991, "annee": "1984", "typ": "ENSERVICE", "altitude": 37.98}},{"type": "Feature", "geometry": {"type": "Point", "coordinates": [2.345870422370038, 48.82251155238642]}, "properties": {"immeuble": "4", "designation": "Rue des", "objectid": 18849, "complement": "#", "geo_point_2d": [48.8225115524, 2.34587042237], "numero": "rn51122", "denomination": "ORCHIDEES", "y": 124669.357, "x": 600686.254, "annee": "1982", "typ": "ENSERVICE", "altitude": 44.618}},{"type": "Feature", "geometry": {"type": "Point", "coordinates": [2.278081182527868, 48.850649986658745]}, "properties": {"immeuble": "2", "designation": "Rue", "objectid": 18856, "complement": "#", "geo_point_2d": [48.8506499867, 2.27808118253], "numero": "rn61216", "denomination": "EUGENE POUBELLE", "y": 127799.996, "x": 595711.112, "annee": "1994", "typ": "ENSERVICE", "altitude": 31.994}},{"type": "Feature", "geometry": {"type": "Point", "coordinates": [2.296101738261733, 48.86145831104727]}, "properties": {"immeuble": "#", "designation": "Quai", "objectid": 18866, "complement": "Entre les cand\u00e9labres VII-1587 et VII-1588_ Sur le parapet", "geo_point_2d": [48.861458311, 2.29610173826], "numero": "rn28091", "denomination": "BRANLY", "y": 129001.017, "x": 597034.217, "annee": "1982", "typ": "ENSERVICE", "altitude": 34.641}},{"type": "Feature", "geometry": {"type": "Point", "coordinates": [2.405208076959434, 48.85522611273799]}, "properties": {"immeuble": "99", "designation": "Rue des", "objectid": 18910, "complement": "Sur l'\u00e9cole", "geo_point_2d": [48.8552261127, 2.40520807696], "numero": "rn80051", "denomination": "PYRENEES", "y": 128309.498, "x": 605039.975, "annee": "1988", "typ": "ENSERVICE", "altitude": 59.448}},{"type": "Feature", "geometry": {"type": "Point", "coordinates": [2.377699101766771, 48.877649494887756]}, "properties": {"immeuble": "#", "designation": "Rue", "objectid": 18918, "complement": "A l'angle de la rue Barrelet de Ricou_Sur le pan coup\u00e9", "geo_point_2d": [48.8776494949, 2.37769910177], "numero": "rn76151", "denomination": "PHILIPPE HECHT", "y": 130801.522, "x": 603020.043, "annee": "1987", "typ": "ENSERVICE", "altitude": 91.528}},{"type": "Feature", "geometry": {"type": "Point", "coordinates": [2.38511971730233, 48.86085347712136]}, "properties": {"immeuble": "#", "designation": "Rue", "objectid": 18938, "complement": "Face aux n\u00b032 et 36_ A l'angle de la rue Duranti", "geo_point_2d": [48.8608534771, 2.3851197173], "numero": "rn43177", "denomination": "MERLIN", "y": 128934.118, "x": 603565.508, "annee": "1985", "typ": "ENSERVICE", "altitude": 49.832}},{"type": "Feature", "geometry": {"type": "Point", "coordinates": [2.3895716834944603, 48.84347337747325]}, "properties": {"immeuble": "46", "designation": "Rue", "objectid": 18962, "complement": "#", "geo_point_2d": [48.8434733775, 2.38957168349], "numero": "rn46248", "denomination": "JACQUES HILLAIRET", "y": 127001.659, "x": 603893.5, "annee": "1995", "typ": "ENSERVICE", "altitude": 46.243}},{"type": "Feature", "geometry": {"type": "Point", "coordinates": [2.337688716316434, 48.885086593227626]}, "properties": {"immeuble": "#", "designation": "Rue", "objectid": 18974, "complement": "Face \u00e0 la rue Durantin", "geo_point_2d": [48.8850865932, 2.33768871632], "numero": "rn70145", "denomination": "RAVIGNAN", "y": 131627.705, "x": 600085.429, "annee": "1988", "typ": "ENSERVICE", "altitude": 86.891}},{"type": "Feature", "geometry": {"type": "Point", "coordinates": [2.336977937563416, 48.887334840474765]}, "properties": {"immeuble": "81Bis", "designation": "Rue", "objectid": 19016, "complement": "Face au n\u00b098", "geo_point_2d": [48.8873348405, 2.33697793756], "numero": "rn69500", "denomination": "LEPIC", "y": 131877.711, "x": 600033.304, "annee": "1988", "typ": "ENSERVICE", "altitude": 106.88}},{"type": "Feature", "geometry": {"type": "Point", "coordinates": [2.347200637222533, 48.88423443590646]}, "properties": {"immeuble": "6Bis", "designation": "Rue de", "objectid": 19041, "complement": "#", "geo_point_2d": [48.8842344359, 2.34720063722], "numero": "rn70172", "denomination": "CLIGNANCOURT", "y": 131533.0, "x": 600783.0, "annee": "1988", "typ": "ENSERVICE", "altitude": 68.154}},{"type": "Feature", "geometry": {"type": "Point", "coordinates": [2.381003519344118, 48.84875505513601]}, "properties": {"immeuble": "26", "designation": "Rue de", "objectid": 19065, "complement": "Sur l'\u00e9cole municipale", "geo_point_2d": [48.8487550551, 2.38100351934], "numero": "rn48088", "denomination": "CITEAUX", "y": 127588.578, "x": 603264.284, "annee": "1984", "typ": "ENSERVICE", "altitude": 35.367}},{"type": "Feature", "geometry": {"type": "Point", "coordinates": [2.285443545962618, 48.88463846023523]},